[
  {
    "trip_id": 1,
    "departure_date": "2025-03-05T08:18:07",
    "departure_time": "2024-06-27T01:34:45",
    "price": 2622,
    "vehicle": {
      "id": 99,
      "vehicle_type": "taxi",
      "brand": "Thoughtmix",
      "number_of_seats": 24,
      "photo_url": "https://163.com/integer/tincidunt/ante/vel.html"
    },
    "agency": {
      "agency_id": 26,
      "agency_name": "Abilene",
      "phone_number": "+351 (234) 177-7001"
    },
    "station": {
      "station_id": 68,
      "station_name": "Lalibella Airport",
      "point_id": 3037426759
    },
    "origin": {
      "id": 2467813953,
      "place": "village",
      "coordinates": {
        "lat": 4.722630899527424,
        "lon": 9.6053801
      },
      "name": "Ebonji"
    },
    "destination": {
      "id": 3794970424,
      "place": "quarter",
      "coordinates": {
        "lat": 4.215054699568725,
        "lon": 8.987995399999999
      },
      "name": "Bibundi Camp"
    },
    "stop_points": [],
    "trip_type": "inter",
    "number_of_passengers": 21,
    "number_of_reservations": 2,
    "latest_reservation_date": "2024-06-26T16:00:29",
    "luggage_types": [
      "other",
      "animals",
      "electronics",
      "furnitures"
    ],
    "standing": "classic"
  },
  {
    "trip_id": 2,
    "departure_date": "2025-02-08T05:15:53",
    "departure_time": "2024-06-27T02:00:48",
    "price": 7655,
    "vehicle": {
      "id": 24,
      "vehicle_type": "personal_car",
      "brand": "Photobug",
      "number_of_seats": 12,
      "photo_url": "https://paypal.com/a/nibh.aspx"
    },
    "agency": {
      "agency_id": 12,
      "agency_name": "Baia Mare",
      "phone_number": "+86 (570) 772-2852"
    },
    "station": {
      "station_id": 13,
      "station_name": "CFB Greenwood",
      "point_id": 3888945135
    },
    "origin": {
      "id": 3075654044,
      "place": "locality",
      "coordinates": {
        "lat": 4.0253488995852145,
        "lon": 9.735171
      },
      "name": "Rondpoint Dakar"
    },
    "destination": {
      "id": 2462074398,
      "place": "village",
      "coordinates": {
        "lat": 6.8973927994082285,
        "lon": 14.4269863
      },
      "name": "Pandjara"
    },
    "stop_points": [
      {
        "id": 2460908364,
        "place": "village",
        "coordinates": {
          "lat": 3.2517432996575026,
          "lon": 11.941749099999997
        },
        "name": "Nlanyop"
      },
      {
        "id": 2933226103,
        "place": "village",
        "coordinates": {
          "lat": 10.078249999441914,
          "lon": 15.093550100000002
        },
        "name": "Golonhobe"
      },
      {
        "id": 3206075832,
        "place": "town",
        "coordinates": {
          "lat": 4.092795499579291,
          "lon": 11.1991686
        },
        "name": "Evodoula"
      },
      {
        "id": 4119251651,
        "place": "village",
        "coordinates": {
          "lat": 10.58473139947069,
          "lon": 14.2622951
        },
        "name": "Zokok Laddeo"
      },
      {
        "id": 1168413580,
        "place": "suburb",
        "coordinates": {
          "lat": 4.010085399586565,
          "lon": 9.756669799999997
        },
        "name": "Ndogpassi III"
      },
      {
        "id": 5936358526,
        "place": "village",
        "coordinates": {
          "lat": 4.212845999568914,
          "lon": 11.4412307
        },
        "name": "Nkolbiyem"
      }
    ],
    "trip_type": "inter",
    "number_of_passengers": 6,
    "number_of_reservations": 6,
    "latest_reservation_date": "2024-09-11T10:50:51",
    "luggage_types": [
      "electronics",
      "furnitures",
      "normal"
    ],
    "standing": "classic"
  },
  {
    "trip_id": 3,
    "departure_date": "2025-03-18T15:00:53",
    "departure_time": "2024-06-27T04:59:35",
    "price": 6021,
    "vehicle": {
      "id": 44,
      "vehicle_type": "personal_car",
      "brand": "Kare",
      "number_of_seats": 4,
      "photo_url": "http://yahoo.com/eu/tincidunt/in/leo/maecenas/pulvinar.png"
    },
    "agency": {
      "agency_id": 32,
      "agency_name": "Marsabit",
      "phone_number": "+33 (303) 894-2576"
    },
    "station": {
      "station_id": 96,
      "station_name": "Campbell AAF (Fort Campbell) Air Field",
      "point_id": 2461916078
    },
    "origin": {
      "id": 2462074551,
      "place": "village",
      "coordinates": {
        "lat": 6.34511559942852,
        "lon": 14.561730899999999
      },
      "name": "Wankoro"
    },
    "destination": {
      "id": 2461915965,
      "place": "village",
      "coordinates": {
        "lat": 4.176924599571996,
        "lon": 14.4656759
      },
      "name": "Gbatanga"
    },
    "stop_points": [],
    "trip_type": "inter",
    "number_of_passengers": 3,
    "number_of_reservations": 3,
    "latest_reservation_date": "2025-01-04T03:26:14",
    "luggage_types": [
      "normal",
      "other",
      "animals",
      "electronics"
    ],
    "standing": "classic"
  },
  {
    "trip_id": 4,
    "departure_date": "2025-06-20T00:53:26",
    "departure_time": "2024-06-27T13:14:27",
    "price": 1211,
    "vehicle": {
      "id": 15,
      "vehicle_type": "taxi",
      "brand": "Quatz",
      "number_of_seats": 6,
      "photo_url": "http://prlog.org/justo/lacinia/eget/tincidunt.js"
    },
    "agency": {
      "agency_id": 10,
      "agency_name": "Aioun El Atrouss",
      "phone_number": "+1 (517) 989-7246"
    },
    "station": {
      "station_id": 40,
      "station_name": "Dawson Creek Airport",
      "point_id": 2462073927
    },
    "origin": {
      "id": 7137060389,
      "place": "village",
      "coordinates": {
        "lat": 11.33540969952387,
        "lon": 14.9829947
      },
      "name": "Marona"
    },
    "destination": {
      "id": 2461016566,
      "place": "village",
      "coordinates": {
        "lat": 6.988590499405588,
        "lon": 12.361165999999999
      },
      "name": "Mayo Dankali"
    },
    "stop_points": [
      {
        "id": 9597438714,
        "place": "locality",
        "coordinates": {
          "lat": 11.724035699555923,
          "lon": 15.025270000000003
        },
        "name": "Kiima"
      },
      {
        "id": 3037427578,
        "place": "village",
        "coordinates": {
          "lat": 7.793979999391387,
          "lon": 15.043650100000002
        },
        "name": "Ribao"
      },
      {
        "id": 2460695337,
        "place": "village",
        "coordinates": {
          "lat": 3.853476999600605,
          "lon": 10.926999999999998
        },
        "name": "Mamb"
      }
    ],
    "trip_type": "inter",
    "number_of_passengers": 6,
    "number_of_reservations": 1,
    "latest_reservation_date": "2024-12-01T11:46:21",
    "luggage_types": [
      "other",
      "animals"
    ],
    "standing": "classic"
  },
  {
    "trip_id": 5,
    "departure_date": "2025-04-10T04:50:59",
    "departure_time": "2024-06-26T23:46:17",
    "price": 7235,
    "vehicle": {
      "id": 95,
      "vehicle_type": "bus",
      "brand": "Npath",
      "number_of_seats": 20,
      "photo_url": "https://sourceforge.net/nam/congue/risus/semper/porta.json"
    },
    "agency": {
      "agency_id": 37,
      "agency_name": "Moshi",
      "phone_number": "+86 (819) 800-7642"
    },
    "station": {
      "station_id": 31,
      "station_name": "Agen-La Garenne Airport",
      "point_id": 3967804447
    },
    "origin": {
      "id": 3037751433,
      "place": "village",
      "coordinates": {
        "lat": 5.60320809946691,
        "lon": 13.849031899999998
      },
      "name": "Mararaba"
    },
    "destination": {
      "id": 1067304164,
      "place": "locality",
      "coordinates": {
        "lat": 9.442862099414521,
        "lon": 13.5633762
      },
      "name": "Chefferie de Nigeriore sekande"
    },
    "stop_points": [
      {
        "id": 2467973649,
        "place": "village",
        "coordinates": {
          "lat": 4.1141898995774255,
          "lon": 9.788136400000003
        },
        "name": "Ngoma"
      },
      {
        "id": 2839381008,
        "place": "village",
        "coordinates": {
          "lat": 6.513696299421551,
          "lon": 10.228602099999998
        },
        "name": "Fungom"
      },
      {
        "id": 2218335289,
        "place": "city",
        "coordinates": {
          "lat": 4.445930699549411,
          "lon": 11.6281209
        },
        "name": "Ntui"
      },
      {
        "id": 2461915970,
        "place": "village",
        "coordinates": {
          "lat": 4.311581799560546,
          "lon": 14.8538491
        },
        "name": "Gogobangolo"
      },
      {
        "id": 2933225783,
        "place": "village",
        "coordinates": {
          "lat": 10.661730099475582,
          "lon": 14.35032
        },
        "name": "Gayak Gandeo"
      },
      {
        "id": 2462073568,
        "place": "village",
        "coordinates": {
          "lat": 6.873993599408939,
          "lon": 14.1168891
        },
        "name": "Katil Mboum"
      }
    ],
    "trip_type": "inter",
    "number_of_passengers": 7,
    "number_of_reservations": 6,
    "latest_reservation_date": "2024-07-08T10:50:28",
    "luggage_types": [
      "other",
      "animals",
      "normal",
      "furnitures",
      "electronics"
    ],
    "standing": "vip"
  },
  {
    "trip_id": 6,
    "departure_date": "2024-12-05T03:29:59",
    "departure_time": "2024-06-27T14:50:44",
    "price": 7170,
    "vehicle": {
      "id": 25,
      "vehicle_type": "bus",
      "brand": "Feedbug",
      "number_of_seats": 12,
      "photo_url": "https://free.fr/nulla/mollis/molestie.html"
    },
    "agency": {
      "agency_id": 24,
      "agency_name": "Jurado",
      "phone_number": "+351 (737) 697-0814"
    },
    "station": {
      "station_id": 43,
      "station_name": "Bhatinda Air Force Station",
      "point_id": 5004930048
    },
    "origin": {
      "id": 5577874525,
      "place": "neighbourhood",
      "coordinates": {
        "lat": 3.8209701996035625,
        "lon": 11.473158499999998
      },
      "name": "Simbock"
    },
    "destination": {
      "id": 6181641869,
      "place": "village",
      "coordinates": {
        "lat": 4.102715499578426,
        "lon": 11.538391099999998
      },
      "name": "Nkolguem I"
    },
    "stop_points": [
      {
        "id": 3815671599,
        "place": "village",
        "coordinates": {
          "lat": 5.160621099495434,
          "lon": 9.465181699999999
        },
        "name": "New Konye"
      },
      {
        "id": 2460907886,
        "place": "village",
        "coordinates": {
          "lat": 3.2389807996587554,
          "lon": 12.3648448
        },
        "name": "Mekomo"
      },
      {
        "id": 2467814178,
        "place": "village",
        "coordinates": {
          "lat": 4.571462499539273,
          "lon": 9.3411684
        },
        "name": "Marumba II"
      }
    ],
    "trip_type": "inter",
    "number_of_passengers": 2,
    "number_of_reservations": 1,
    "latest_reservation_date": "2024-07-09T06:01:08",
    "luggage_types": [],
    "standing": "classic"
  },
  {
    "trip_id": 7,
    "departure_date": "2024-07-13T00:12:07",
    "departure_time": "2024-06-27T15:05:01",
    "price": 8743,
    "vehicle": {
      "id": 44,
      "vehicle_type": "personal_car",
      "brand": "Kare",
      "number_of_seats": 4,
      "photo_url": "http://yahoo.com/eu/tincidunt/in/leo/maecenas/pulvinar.png"
    },
    "agency": {
      "agency_id": 36,
      "agency_name": "Creston",
      "phone_number": "+7 (693) 157-9009"
    },
    "station": {
      "station_id": 48,
      "station_name": "Lubbock Preston Smith International Airport",
      "point_id": 2093006464
    },
    "origin": {
      "id": 3037427581,
      "place": "village",
      "coordinates": {
        "lat": 8.588839999393747,
        "lon": 13.210940199999998
      },
      "name": "Riga"
    },
    "destination": {
      "id": 2462073617,
      "place": "village",
      "coordinates": {
        "lat": 4.56348129953991,
        "lon": 13.3196737
      },
      "name": "Kombé"
    },
    "stop_points": [
      {
        "id": 2461915843,
        "place": "village",
        "coordinates": {
          "lat": 3.5098358996325643,
          "lon": 15.0812523
        },
        "name": "Biwala"
      },
      {
        "id": 2460908154,
        "place": "village",
        "coordinates": {
          "lat": 2.6655344997166153,
          "lon": 12.1593559
        },
        "name": "Mébem"
      }
    ],
    "trip_type": "inter",
    "number_of_passengers": 3,
    "number_of_reservations": 0,
    "latest_reservation_date": "2024-07-09T17:01:26",
    "luggage_types": [
      "animals",
      "furnitures",
      "other"
    ],
    "standing": "classic"
  },
  {
    "trip_id": 8,
    "departure_date": "2025-02-12T21:02:37",
    "departure_time": "2024-06-26T16:50:30",
    "price": 7734,
    "vehicle": {
      "id": 45,
      "vehicle_type": "personal_car",
      "brand": "Yoveo",
      "number_of_seats": 20,
      "photo_url": "https://flavors.me/luctus/nec.jsp"
    },
    "agency": {
      "agency_id": 12,
      "agency_name": "Baia Mare",
      "phone_number": "+86 (570) 772-2852"
    },
    "station": {
      "station_id": 38,
      "station_name": "Twentynine Palms Airport",
      "point_id": 2460907229
    },
    "origin": {
      "id": 3037426401,
      "place": "village",
      "coordinates": {
        "lat": 10.300108299453782,
        "lon": 14.0824874
      },
      "name": "Damaye"
    },
    "destination": {
      "id": 2467973548,
      "place": "village",
      "coordinates": {
        "lat": 5.366832299481647,
        "lon": 12.429900299999998
      },
      "name": "Mendjan Mvouni"
    },
    "stop_points": [],
    "trip_type": "inter",
    "number_of_passengers": 9,
    "number_of_reservations": 5,
    "latest_reservation_date": "2024-07-29T21:51:59",
    "luggage_types": [
      "animals",
      "furnitures",
      "electronics"
    ],
    "standing": "vip"
  },
  {
    "trip_id": 9,
    "departure_date": "2024-07-12T13:22:16",
    "departure_time": "2024-06-26T23:01:50",
    "price": 8334,
    "vehicle": {
      "id": 42,
      "vehicle_type": "bike",
      "brand": "Jayo",
      "number_of_seats": 10,
      "photo_url": "https://furl.net/vulputate/nonummy/maecenas.js"
    },
    "agency": {
      "agency_id": 20,
      "agency_name": "Al-Ubayyid",
      "phone_number": "+86 (828) 907-7443"
    },
    "station": {
      "station_id": 52,
      "station_name": "Helsinki Malmi Airport",
      "point_id": 2933223410
    },
    "origin": {
      "id": 2462073550,
      "place": "village",
      "coordinates": {
        "lat": 4.966883199509143,
        "lon": 13.4903276
      },
      "name": "Kano"
    },
    "destination": {
      "id": 7137060393,
      "place": "village",
      "coordinates": {
        "lat": 11.360829099525876,
        "lon": 14.941069300000002
      },
      "name": "Bourmagwé"
    },
    "stop_points": [],
    "trip_type": "inter",
    "number_of_passengers": 8,
    "number_of_reservations": 0,
    "latest_reservation_date": "2024-07-01T16:25:31",
    "luggage_types": [
      "electronics",
      "animals",
      "normal"
    ],
    "standing": "classic"
  },
  {
    "trip_id": 10,
    "departure_date": "2024-06-27T05:34:22",
    "departure_time": "2024-06-26T22:41:33",
    "price": 1186,
    "vehicle": {
      "id": 83,
      "vehicle_type": "bus",
      "brand": "Tagtune",
      "number_of_seats": 17,
      "photo_url": "https://over-blog.com/a.json"
    },
    "agency": {
      "agency_id": 1,
      "agency_name": "North Bend",
      "phone_number": "+380 (354) 124-5554"
    },
    "station": {
      "station_id": 33,
      "station_name": "Cloncurry Airport",
      "point_id": 2461916409
    },
    "origin": {
      "id": 2933226689,
      "place": "village",
      "coordinates": {
        "lat": 10.61997739947291,
        "lon": 14.166520899999998
      },
      "name": "Mogodi"
    },
    "destination": {
      "id": 2461017249,
      "place": "village",
      "coordinates": {
        "lat": 5.087709299500507,
        "lon": 10.4894704
      },
      "name": "Sa'nya"
    },
    "stop_points": [],
    "trip_type": "inter",
    "number_of_passengers": 4,
    "number_of_reservations": 0,
    "latest_reservation_date": "2024-06-26T23:55:14",
    "luggage_types": [
      "animals",
      "furnitures",
      "other",
      "electronics"
    ],
    "standing": "vip"
  },
  {
    "trip_id": 11,
    "departure_date": "2024-07-26T21:09:14",
    "departure_time": "2024-06-27T00:34:11",
    "price": 7928,
    "vehicle": {
      "id": 58,
      "vehicle_type": "taxi",
      "brand": "Topicshots",
      "number_of_seats": 27,
      "photo_url": "http://columbia.edu/dolor/morbi/vel/lectus.png"
    },
    "agency": {
      "agency_id": 36,
      "agency_name": "Creston",
      "phone_number": "+7 (693) 157-9009"
    },
    "station": {
      "station_id": 82,
      "station_name": "Pietermaritzburg Airport",
      "point_id": 2461016604
    },
    "origin": {
      "id": 2461916437,
      "place": "village",
      "coordinates": {
        "lat": 3.1188636996706234,
        "lon": 13.827010899999998
      },
      "name": "Némeyong"
    },
    "destination": {
      "id": 3782443543,
      "place": "neighbourhood",
      "coordinates": {
        "lat": 5.738661499458993,
        "lon": 10.9120585
      },
      "name": "Manka"
    },
    "stop_points": [
      {
        "id": 4228121793,
        "place": "village",
        "coordinates": {
          "lat": 2.6901696997140716,
          "lon": 10.1985889
        },
        "name": "V Ngok 2"
      }
    ],
    "trip_type": "inter",
    "number_of_passengers": 27,
    "number_of_reservations": 19,
    "latest_reservation_date": "2024-07-19T09:14:48",
    "luggage_types": [
      "furnitures",
      "electronics",
      "other"
    ],
    "standing": "classic"
  },
  {
    "trip_id": 12,
    "departure_date": "2025-05-25T09:05:13",
    "departure_time": "2024-06-26T16:24:29",
    "price": 7707,
    "vehicle": {
      "id": 72,
      "vehicle_type": "taxi",
      "brand": "Feedfish",
      "number_of_seats": 18,
      "photo_url": "https://networksolutions.com/mauris/eget/massa/tempor/convallis/nulla.aspx"
    },
    "agency": {
      "agency_id": 23,
      "agency_name": "Kudahuvadhoo",
      "phone_number": "+62 (586) 466-1760"
    },
    "station": {
      "station_id": 66,
      "station_name": "Borrego Valley Airport",
      "point_id": 2451742200
    },
    "origin": {
      "id": 3037843893,
      "place": "village",
      "coordinates": {
        "lat": 5.343794999483146,
        "lon": 9.6050549
      },
      "name": "Mbouassom"
    },
    "destination": {
      "id": 6987004363,
      "place": "town",
      "coordinates": {
        "lat": 10.116539699443878,
        "lon": 14.9712175
      },
      "name": "Kar-Hay"
    },
    "stop_points": [
      {
        "id": 2460663308,
        "place": "village",
        "coordinates": {
          "lat": 2.8546101996972193,
          "lon": 10.020364799999998
        },
        "name": "Nko'olong"
      }
    ],
    "trip_type": "inter",
    "number_of_passengers": 4,
    "number_of_reservations": 0,
    "latest_reservation_date": "2024-11-25T09:32:22",
    "luggage_types": [
      "normal"
    ],
    "standing": "classic"
  },
  {
    "trip_id": 13,
    "departure_date": "2024-09-14T18:19:19",
    "departure_time": "2024-06-26T15:22:51",
    "price": 8224,
    "vehicle": {
      "id": 19,
      "vehicle_type": "taxi",
      "brand": "Voonder",
      "number_of_seats": 21,
      "photo_url": "http://virginia.edu/eros/elementum/pellentesque/quisque/porta/volutpat/erat.jsp"
    },
    "agency": {
      "agency_id": 38,
      "agency_name": "Albuquerque",
      "phone_number": "+86 (894) 569-2645"
    },
    "station": {
      "station_id": 16,
      "station_name": "Marree Airport",
      "point_id": 3959194781
    },
    "origin": {
      "id": 2839366367,
      "place": "village",
      "coordinates": {
        "lat": 6.5425431994204235,
        "lon": 10.1750347
      },
      "name": "Mekaf"
    },
    "destination": {
      "id": 921136374,
      "place": "town",
      "coordinates": {
        "lat": 3.4418252996390626,
        "lon": 11.765163
      },
      "name": "Nkolmetet"
    },
    "stop_points": [
      {
        "id": 2460908153,
        "place": "village",
        "coordinates": {
          "lat": 3.800910099605394,
          "lon": 12.234708099999999
        },
        "name": "Mvé"
      },
      {
        "id": 3037427932,
        "place": "village",
        "coordinates": {
          "lat": 2.523668899731342,
          "lon": 14.562365000000002
        },
        "name": "Zende"
      },
      {
        "id": 2933226691,
        "place": "village",
        "coordinates": {
          "lat": 9.958649899436002,
          "lon": 15.4029499
        },
        "name": "Mongui Centre"
      }
    ],
    "trip_type": "inter",
    "number_of_passengers": 11,
    "number_of_reservations": 10,
    "latest_reservation_date": "2024-08-19T23:02:02",
    "luggage_types": [
      "normal",
      "electronics",
      "other"
    ],
    "standing": "classic"
  },
  {
    "trip_id": 14,
    "departure_date": "2024-10-21T05:43:40",
    "departure_time": "2024-06-27T10:22:02",
    "price": 1086,
    "vehicle": {
      "id": 18,
      "vehicle_type": "bus",
      "brand": "Thoughtblab",
      "number_of_seats": 24,
      "photo_url": "http://japanpost.jp/orci/eget/orci/vehicula.xml"
    },
    "agency": {
      "agency_id": 36,
      "agency_name": "Creston",
      "phone_number": "+7 (693) 157-9009"
    },
    "station": {
      "station_id": 95,
      "station_name": "Sumter Airport",
      "point_id": 2467973010
    },
    "origin": {
      "id": 2460663492,
      "place": "village",
      "coordinates": {
        "lat": 2.516553499732084,
        "lon": 11.1141767
      },
      "name": "Nsessoum"
    },
    "destination": {
      "id": 2295707417,
      "place": "village",
      "coordinates": {
        "lat": 6.186645899435677,
        "lon": 9.768815
      },
      "name": "Amassi"
    },
    "stop_points": [
      {
        "id": 2229614534,
        "place": "village",
        "coordinates": {
          "lat": 4.034960099584366,
          "lon": 14.397202100000001
        },
        "name": "Mombèl II"
      }
    ],
    "trip_type": "inter",
    "number_of_passengers": 12,
    "number_of_reservations": 0,
    "latest_reservation_date": "2024-07-25T21:18:07",
    "luggage_types": [
      "normal",
      "other",
      "furnitures",
      "electronics"
    ],
    "standing": "classic"
  },
  {
    "trip_id": 15,
    "departure_date": "2025-05-30T08:47:30",
    "departure_time": "2024-06-26T22:16:04",
    "price": 8035,
    "vehicle": {
      "id": 76,
      "vehicle_type": "personal_car",
      "brand": "Realbridge",
      "number_of_seats": 18,
      "photo_url": "https://slideshare.net/vel/augue/vestibulum/rutrum/rutrum.jsp"
    },
    "agency": {
      "agency_id": 27,
      "agency_name": "Akrotiri",
      "phone_number": "+46 (121) 699-9710"
    },
    "station": {
      "station_id": 67,
      "station_name": "Copenhagen Kastrup Airport",
      "point_id": 2389012697
    },
    "origin": {
      "id": 8289610144,
      "place": "village",
      "coordinates": {
        "lat": 7.2488875993991995,
        "lon": 13.8247061
      },
      "name": "Ouber"
    },
    "destination": {
      "id": 3037427924,
      "place": "village",
      "coordinates": {
        "lat": 10.286589999453028,
        "lon": 13.96643
      },
      "name": "Zama"
    },
    "stop_points": [
      {
        "id": 2460908054,
        "place": "village",
        "coordinates": {
          "lat": 3.4028181996428133,
          "lon": 12.4700679
        },
        "name": "Mimbang"
      },
      {
        "id": 2456087140,
        "place": "locality",
        "coordinates": {
          "lat": 4.05798289958234,
          "lon": 9.224057799999999
        },
        "name": "Bonadikombo"
      },
      {
        "id": 501394244,
        "place": "village",
        "coordinates": {
          "lat": 5.841071499453271,
          "lon": 8.8562515
        },
        "name": "Ajasso"
      }
    ],
    "trip_type": "inter",
    "number_of_passengers": 4,
    "number_of_reservations": 0,
    "latest_reservation_date": "2025-03-31T04:35:02",
    "luggage_types": [
      "furnitures",
      "other"
    ],
    "standing": "classic"
  },
  {
    "trip_id": 16,
    "departure_date": "2024-07-25T11:20:02",
    "departure_time": "2024-06-27T06:48:04",
    "price": 2655,
    "vehicle": {
      "id": 93,
      "vehicle_type": "taxi",
      "brand": "Lazzy",
      "number_of_seats": 3,
      "photo_url": "https://mtv.com/in/lacus/curabitur/at/ipsum.jsp"
    },
    "agency": {
      "agency_id": 5,
      "agency_name": "Alert",
      "phone_number": "+48 (467) 909-9526"
    },
    "station": {
      "station_id": 11,
      "station_name": "Vista Field",
      "point_id": 3956506339
    },
    "origin": {
      "id": 2467973057,
      "place": "village",
      "coordinates": {
        "lat": 4.867993699516412,
        "lon": 9.1165713
      },
      "name": "Boa Yenge"
    },
    "destination": {
      "id": 2433996839,
      "place": "village",
      "coordinates": {
        "lat": 4.111107899577694,
        "lon": 11.8809273
      },
      "name": "Afanloum"
    },
    "stop_points": [
      {
        "id": 5936358463,
        "place": "village",
        "coordinates": {
          "lat": 4.076128599580748,
          "lon": 11.2821952
        },
        "name": "Ayos"
      },
      {
        "id": 2460974457,
        "place": "village",
        "coordinates": {
          "lat": 3.770098399608218,
          "lon": 11.444694199999999
        },
        "name": "Nomayos I"
      }
    ],
    "trip_type": "inter",
    "number_of_passengers": 1,
    "number_of_reservations": 0,
    "latest_reservation_date": "2024-07-20T05:29:20",
    "luggage_types": [
      "other",
      "normal",
      "animals",
      "furnitures"
    ],
    "standing": "classic"
  },
  {
    "trip_id": 17,
    "departure_date": "2025-04-15T11:41:36",
    "departure_time": "2024-06-27T08:08:45",
    "price": 9283,
    "vehicle": {
      "id": 66,
      "vehicle_type": "bus",
      "brand": "Vipe",
      "number_of_seats": 19,
      "photo_url": "https://goo.ne.jp/felis/eu.json"
    },
    "agency": {
      "agency_id": 25,
      "agency_name": "Ambon",
      "phone_number": "+92 (637) 591-7546"
    },
    "station": {
      "station_id": 94,
      "station_name": "False Island Seaplane Base",
      "point_id": 1067306324
    },
    "origin": {
      "id": 2933223416,
      "place": "village",
      "coordinates": {
        "lat": 10.009649999438478,
        "lon": 14.5985
      },
      "name": "Baiga_taala"
    },
    "destination": {
      "id": 2933226678,
      "place": "village",
      "coordinates": {
        "lat": 10.337199999455876,
        "lon": 14.440700200000002
      },
      "name": "Mendeo"
    },
    "stop_points": [],
    "trip_type": "inter",
    "number_of_passengers": 13,
    "number_of_reservations": 5,
    "latest_reservation_date": "2025-03-21T01:23:50",
    "luggage_types": [
      "normal"
    ],
    "standing": "classic"
  },
  {
    "trip_id": 18,
    "departure_date": "2025-05-19T03:48:44",
    "departure_time": "2024-06-27T03:10:40",
    "price": 2504,
    "vehicle": {
      "id": 60,
      "vehicle_type": "personal_car",
      "brand": "Skynoodle",
      "number_of_seats": 5,
      "photo_url": "http://rambler.ru/curabitur/gravida/nisi/at/nibh/in/hac.jpg"
    },
    "agency": {
      "agency_id": 30,
      "agency_name": "La Grande",
      "phone_number": "+62 (667) 699-0034"
    },
    "station": {
      "station_id": 82,
      "station_name": "Pietermaritzburg Airport",
      "point_id": 2461016604
    },
    "origin": {
      "id": 2461915900,
      "place": "village",
      "coordinates": {
        "lat": 4.446785099549339,
        "lon": 14.480078199999998
      },
      "name": "Djira"
    },
    "destination": {
      "id": 732153825,
      "place": "suburb",
      "coordinates": {
        "lat": 4.032852099584552,
        "lon": 9.7603178
      },
      "name": "Logbaba"
    },
    "stop_points": [],
    "trip_type": "inter",
    "number_of_passengers": 1,
    "number_of_reservations": 0,
    "latest_reservation_date": "2025-01-03T21:09:53",
    "luggage_types": [
      "normal",
      "animals"
    ],
    "standing": "vip"
  },
  {
    "trip_id": 19,
    "departure_date": "2025-04-11T03:12:08",
    "departure_time": "2024-06-27T06:13:10",
    "price": 1489,
    "vehicle": {
      "id": 52,
      "vehicle_type": "taxi",
      "brand": "Demizz",
      "number_of_seats": 26,
      "photo_url": "https://over-blog.com/donec/odio/justo/sollicitudin.png"
    },
    "agency": {
      "agency_id": 12,
      "agency_name": "Baia Mare",
      "phone_number": "+86 (570) 772-2852"
    },
    "station": {
      "station_id": 76,
      "station_name": "Nara Airport",
      "point_id": 3037427891
    },
    "origin": {
      "id": 2461015940,
      "place": "village",
      "coordinates": {
        "lat": 5.4730835994748785,
        "lon": 10.4766602
      },
      "name": "Batoukop"
    },
    "destination": {
      "id": 2461916009,
      "place": "village",
      "coordinates": {
        "lat": 3.5104555996325044,
        "lon": 12.801300599999998
      },
      "name": "Kodja"
    },
    "stop_points": [
      {
        "id": 2217604269,
        "place": "village",
        "coordinates": {
          "lat": 3.985728199588725,
          "lon": 11.3929248
        },
        "name": "Nkolfep"
      },
      {
        "id": 2460907683,
        "place": "village",
        "coordinates": {
          "lat": 3.625873799621605,
          "lon": 11.6488098
        },
        "name": "Loum II"
      },
      {
        "id": 2933227174,
        "place": "village",
        "coordinates": {
          "lat": 10.137879899444986,
          "lon": 14.8956599
        },
        "name": "Takreo"
      },
      {
        "id": 2467972975,
        "place": "village",
        "coordinates": {
          "lat": 4.920034899512563,
          "lon": 10.7747414
        },
        "name": "Bantoum"
      },
      {
        "id": 3981643614,
        "place": "locality",
        "coordinates": {
          "lat": 5.1066604994991796,
          "lon": 10.549728999999997
        },
        "name": "Nekwan II"
      },
      {
        "id": 6352205218,
        "place": "quarter",
        "coordinates": {
          "lat": 5.535352099471022,
          "lon": 10.1790384
        },
        "name": "Balepi"
      }
    ],
    "trip_type": "inter",
    "number_of_passengers": 15,
    "number_of_reservations": 13,
    "latest_reservation_date": "2024-11-02T06:07:06",
    "luggage_types": [],
    "standing": "vip"
  },
  {
    "trip_id": 20,
    "departure_date": "2025-02-23T06:40:34",
    "departure_time": "2024-06-26T18:13:14",
    "price": 7742,
    "vehicle": {
      "id": 31,
      "vehicle_type": "personal_car",
      "brand": "Photobug",
      "number_of_seats": 30,
      "photo_url": "https://sourceforge.net/nonummy/integer/non/velit/donec/diam/neque.jsp"
    },
    "agency": {
      "agency_id": 12,
      "agency_name": "Baia Mare",
      "phone_number": "+86 (570) 772-2852"
    },
    "station": {
      "station_id": 36,
      "station_name": "Council Bluffs Municipal Airport",
      "point_id": 3029264331
    },
    "origin": {
      "id": 2462073849,
      "place": "village",
      "coordinates": {
        "lat": 6.593516999418485,
        "lon": 12.954656299999998
      },
      "name": "Mandoum I"
    },
    "destination": {
      "id": 2460908252,
      "place": "village",
      "coordinates": {
        "lat": 2.607344199722639,
        "lon": 11.384127299999998
      },
      "name": "Nko'adjap I"
    },
    "stop_points": [
      {
        "id": 2933161211,
        "place": "village",
        "coordinates": {
          "lat": 10.912019999492394,
          "lon": 13.8406298
        },
        "name": "Mandoussa_centre"
      },
      {
        "id": 4116263781,
        "place": "locality",
        "coordinates": {
          "lat": 10.643636899474421,
          "lon": 14.4278411
        },
        "name": "Gouriladé"
      },
      {
        "id": 2460907993,
        "place": "village",
        "coordinates": {
          "lat": 3.18956839966362,
          "lon": 11.8626059
        },
        "name": "Meyila"
      },
      {
        "id": 7787810707,
        "place": "village",
        "coordinates": {
          "lat": 3.4633137996370023,
          "lon": 12.588958699999997
        },
        "name": "Makak"
      }
    ],
    "trip_type": "inter",
    "number_of_passengers": 27,
    "number_of_reservations": 4,
    "latest_reservation_date": "2024-11-13T12:03:08",
    "luggage_types": [
      "electronics",
      "animals",
      "other",
      "furnitures"
    ],
    "standing": "vip"
  },
  {
    "trip_id": 21,
    "departure_date": "2024-10-31T19:42:29",
    "departure_time": "2024-06-27T05:56:51",
    "price": 1526,
    "vehicle": {
      "id": 77,
      "vehicle_type": "taxi",
      "brand": "Ozu",
      "number_of_seats": 19,
      "photo_url": "https://phoca.cz/fusce/consequat/nulla/nisl.png"
    },
    "agency": {
      "agency_id": 28,
      "agency_name": "Maringá",
      "phone_number": "+86 (120) 657-3031"
    },
    "station": {
      "station_id": 59,
      "station_name": "Block Island State Airport",
      "point_id": 3037426543
    },
    "origin": {
      "id": 2460907899,
      "place": "village",
      "coordinates": {
        "lat": 3.4628597996370467,
        "lon": 12.487516800000002
      },
      "name": "Melondo"
    },
    "destination": {
      "id": 3715154352,
      "place": "village",
      "coordinates": {
        "lat": 6.187081499435656,
        "lon": 10.7270474
      },
      "name": "Mbuluf"
    },
    "stop_points": [
      {
        "id": 7913180754,
        "place": "village",
        "coordinates": {
          "lat": 10.479593599464227,
          "lon": 14.153834599999998
        },
        "name": "Hardeo"
      },
      {
        "id": 3037427589,
        "place": "village",
        "coordinates": {
          "lat": 10.832545999486905,
          "lon": 13.824097899999998
        },
        "name": "Rouva"
      }
    ],
    "trip_type": "inter",
    "number_of_passengers": 18,
    "number_of_reservations": 14,
    "latest_reservation_date": "2024-07-26T07:03:53",
    "luggage_types": [],
    "standing": "classic"
  },
  {
    "trip_id": 22,
    "departure_date": "2025-02-10T02:55:04",
    "departure_time": "2024-06-27T02:14:21",
    "price": 6098,
    "vehicle": {
      "id": 16,
      "vehicle_type": "personal_car",
      "brand": "Realcube",
      "number_of_seats": 15,
      "photo_url": "http://uol.com.br/sapien/ut.html"
    },
    "agency": {
      "agency_id": 18,
      "agency_name": null,
      "phone_number": "+351 (565) 601-9997"
    },
    "station": {
      "station_id": 70,
      "station_name": "Concord Municipal Airport",
      "point_id": 2461016302
    },
    "origin": {
      "id": 3001883853,
      "place": "village",
      "coordinates": {
        "lat": 12.385177699616689,
        "lon": 14.4380795
      },
      "name": "Hadamari"
    },
    "destination": {
      "id": 2467973280,
      "place": "village",
      "coordinates": {
        "lat": 5.126674499497782,
        "lon": 9.666301299999999
      },
      "name": "Ekanjok"
    },
    "stop_points": [
      {
        "id": 2467813942,
        "place": "village",
        "coordinates": {
          "lat": 4.4832886995463666,
          "lon": 9.0036422
        },
        "name": "Dikome"
      },
      {
        "id": 6180799902,
        "place": "village",
        "coordinates": {
          "lat": 4.181146999571633,
          "lon": 11.2296206
        },
        "name": "Tala II"
      },
      {
        "id": 2461916016,
        "place": "village",
        "coordinates": {
          "lat": 4.350548999557287,
          "lon": 14.390355
        },
        "name": "Kombo Amoukou"
      },
      {
        "id": 2467973178,
        "place": "village",
        "coordinates": {
          "lat": 4.3601137995564905,
          "lon": 10.8477725
        },
        "name": "Dihong"
      },
      {
        "id": 2460695477,
        "place": "village",
        "coordinates": {
          "lat": 3.6373379996205304,
          "lon": 9.985616699999998
        },
        "name": "Olombé"
      },
      {
        "id": 4496741555,
        "place": "village",
        "coordinates": {
          "lat": 5.012815699505827,
          "lon": 9.419203299999998
        },
        "name": "Mbakwa Supe"
      }
    ],
    "trip_type": "inter",
    "number_of_passengers": 11,
    "number_of_reservations": 11,
    "latest_reservation_date": "2025-02-04T22:45:14",
    "luggage_types": [
      "electronics"
    ],
    "standing": "vip"
  },
  {
    "trip_id": 23,
    "departure_date": "2024-07-15T02:51:13",
    "departure_time": "2024-06-27T03:19:02",
    "price": 4722,
    "vehicle": {
      "id": 89,
      "vehicle_type": "bike",
      "brand": "Flashdog",
      "number_of_seats": 1,
      "photo_url": "https://theglobeandmail.com/lobortis/sapien/sapien.html"
    },
    "agency": {
      "agency_id": 26,
      "agency_name": "Abilene",
      "phone_number": "+351 (234) 177-7001"
    },
    "station": {
      "station_id": 90,
      "station_name": "Page Municipal Airport",
      "point_id": 2467972989
    },
    "origin": {
      "id": 11005978724,
      "place": "village",
      "coordinates": {
        "lat": 3.423817299640791,
        "lon": 14.4268513
      },
      "name": "Nkolenyin"
    },
    "destination": {
      "id": 2461915999,
      "place": "village",
      "coordinates": {
        "lat": 4.426914399550968,
        "lon": 13.021635299999998
      },
      "name": "Kap"
    },
    "stop_points": [
      {
        "id": 2933152281,
        "place": "village",
        "coordinates": {
          "lat": 12.513426699629298,
          "lon": 14.368582699999997
        },
        "name": "Issenye"
      },
      {
        "id": 2124286085,
        "place": "village",
        "coordinates": {
          "lat": 4.580821799538527,
          "lon": 11.214286999999999
        },
        "name": "Guéboba"
      },
      {
        "id": 2467813805,
        "place": "village",
        "coordinates": {
          "lat": 4.553019199540746,
          "lon": 10.024419899999998
        },
        "name": "Bi"
      }
    ],
    "trip_type": "inter",
    "number_of_passengers": 1,
    "number_of_reservations": 1,
    "latest_reservation_date": "2024-07-14T21:13:37",
    "luggage_types": [
      "electronics",
      "animals",
      "furnitures"
    ],
    "standing": "classic"
  },
  {
    "trip_id": 24,
    "departure_date": "2025-02-08T19:06:40",
    "departure_time": "2024-06-27T06:44:12",
    "price": 6494,
    "vehicle": {
      "id": 92,
      "vehicle_type": "bus",
      "brand": "Trunyx",
      "number_of_seats": 27,
      "photo_url": "http://google.com.au/ligula.jsp"
    },
    "agency": {
      "agency_id": 1,
      "agency_name": "North Bend",
      "phone_number": "+380 (354) 124-5554"
    },
    "station": {
      "station_id": 87,
      "station_name": "Diagoras Airport",
      "point_id": 2461016512
    },
    "origin": {
      "id": 4984567866,
      "place": "village",
      "coordinates": {
        "lat": 12.196095499598567,
        "lon": 14.7454414
      },
      "name": "Ouda"
    },
    "destination": {
      "id": 2467814404,
      "place": "village",
      "coordinates": {
        "lat": 4.202799699569773,
        "lon": 9.6064371
      },
      "name": "Nkendé"
    },
    "stop_points": [
      {
        "id": 2460907336,
        "place": "village",
        "coordinates": {
          "lat": 3.5987978996241465,
          "lon": 12.481645899999998
        },
        "name": "Ebodoumo"
      }
    ],
    "trip_type": "inter",
    "number_of_passengers": 24,
    "number_of_reservations": 10,
    "latest_reservation_date": "2025-02-04T21:57:47",
    "luggage_types": [],
    "standing": "classic"
  },
  {
    "trip_id": 25,
    "departure_date": "2025-03-30T17:32:15",
    "departure_time": "2024-06-27T15:03:40",
    "price": 1369,
    "vehicle": {
      "id": 44,
      "vehicle_type": "personal_car",
      "brand": "Kare",
      "number_of_seats": 4,
      "photo_url": "http://yahoo.com/eu/tincidunt/in/leo/maecenas/pulvinar.png"
    },
    "agency": {
      "agency_id": 19,
      "agency_name": "Mazatlán",
      "phone_number": "+385 (425) 492-1348"
    },
    "station": {
      "station_id": 36,
      "station_name": "Council Bluffs Municipal Airport",
      "point_id": 3029264331
    },
    "origin": {
      "id": 3967929416,
      "place": "village",
      "coordinates": {
        "lat": 5.457112699475881,
        "lon": 10.4648089
      },
      "name": "Ndenbou-Melam"
    },
    "destination": {
      "id": 2460907089,
      "place": "village",
      "coordinates": {
        "lat": 2.4203149997421547,
        "lon": 12.4157204
      },
      "name": "Anyoungom"
    },
    "stop_points": [
      {
        "id": 3037427888,
        "place": "village",
        "coordinates": {
          "lat": 10.51738989946652,
          "lon": 13.80541
        },
        "name": "Winde Gawar_1"
      },
      {
        "id": 3328478967,
        "place": "village",
        "coordinates": {
          "lat": 4.6978245995293415,
          "lon": 11.2998375
        },
        "name": "Tchékané"
      },
      {
        "id": 5297316729,
        "place": "village",
        "coordinates": {
          "lat": 11.019458799500027,
          "lon": 13.8118754
        },
        "name": "Daouchouf"
      }
    ],
    "trip_type": "inter",
    "number_of_passengers": 2,
    "number_of_reservations": 0,
    "latest_reservation_date": "2024-07-20T23:22:52",
    "luggage_types": [
      "furnitures"
    ],
    "standing": "classic"
  },
  {
    "trip_id": 26,
    "departure_date": "2024-12-01T20:28:39",
    "departure_time": "2024-06-27T02:37:48",
    "price": 4021,
    "vehicle": {
      "id": 2,
      "vehicle_type": "personal_car",
      "brand": "Gigaclub",
      "number_of_seats": 18,
      "photo_url": "https://patch.com/sit.jsp"
    },
    "agency": {
      "agency_id": 40,
      "agency_name": "Huangyan",
      "phone_number": "+62 (302) 492-8272"
    },
    "station": {
      "station_id": 47,
      "station_name": "Moenjodaro Airport",
      "point_id": 10883184035
    },
    "origin": {
      "id": 3037427462,
      "place": "village",
      "coordinates": {
        "lat": 9.039320099402369,
        "lon": 13.88174
      },
      "name": "Ouro Mayo"
    },
    "destination": {
      "id": 2461015874,
      "place": "village",
      "coordinates": {
        "lat": 5.608773599466577,
        "lon": 9.8896596
      },
      "name": "Bangang"
    },
    "stop_points": [
      {
        "id": 8569907557,
        "place": "village",
        "coordinates": {
          "lat": 2.4012041997441615,
          "lon": 15.383509399999996
        },
        "name": "Mboyo"
      },
      {
        "id": 8350051537,
        "place": "village",
        "coordinates": {
          "lat": 3.141180299668408,
          "lon": 13.6396015
        },
        "name": "Poempoum"
      },
      {
        "id": 6915463491,
        "place": "village",
        "coordinates": {
          "lat": 4.019754499585709,
          "lon": 14.0247343
        },
        "name": "Beslebot"
      },
      {
        "id": 2461916395,
        "place": "village",
        "coordinates": {
          "lat": 3.5199859996315985,
          "lon": 12.725209699999999
        },
        "name": "Nkolkwa"
      },
      {
        "id": 2461017949,
        "place": "village",
        "coordinates": {
          "lat": 6.8062039994110695,
          "lon": 10.798651799999998
        },
        "name": "Zombu"
      },
      {
        "id": 2460908254,
        "place": "village",
        "coordinates": {
          "lat": 2.41826689974237,
          "lon": 11.521999799999998
        },
        "name": "Nko'olong"
      }
    ],
    "trip_type": "inter",
    "number_of_passengers": 10,
    "number_of_reservations": 0,
    "latest_reservation_date": "2024-09-08T19:01:05",
    "luggage_types": [
      "other",
      "animals",
      "furnitures",
      "electronics"
    ],
    "standing": "vip"
  },
  {
    "trip_id": 27,
    "departure_date": "2025-01-15T11:36:07",
    "departure_time": "2024-06-27T03:33:31",
    "price": 4884,
    "vehicle": {
      "id": 61,
      "vehicle_type": "bike",
      "brand": "Bluejam",
      "number_of_seats": 18,
      "photo_url": "http://cpanel.net/proin/interdum/mauris.json"
    },
    "agency": {
      "agency_id": 37,
      "agency_name": "Moshi",
      "phone_number": "+86 (819) 800-7642"
    },
    "station": {
      "station_id": 98,
      "station_name": "Ama Airport",
      "point_id": 3778299986
    },
    "origin": {
      "id": 4118447440,
      "place": "locality",
      "coordinates": {
        "lat": 10.482493699464403,
        "lon": 14.171505299999998
      },
      "name": "Makaba"
    },
    "destination": {
      "id": 1765147376,
      "place": "suburb",
      "coordinates": {
        "lat": 4.146927899574584,
        "lon": 9.2415169
      },
      "name": "Small-Soppo"
    },
    "stop_points": [
      {
        "id": 5120947747,
        "place": "neighbourhood",
        "coordinates": {
          "lat": 4.0225623995854605,
          "lon": 9.7017512
        },
        "name": "Ange Raphael"
      }
    ],
    "trip_type": "inter",
    "number_of_passengers": 5,
    "number_of_reservations": 3,
    "latest_reservation_date": "2024-09-13T00:13:57",
    "luggage_types": [
      "animals",
      "other",
      "normal",
      "furnitures"
    ],
    "standing": "vip"
  },
  {
    "trip_id": 28,
    "departure_date": "2025-03-20T19:41:48",
    "departure_time": "2024-06-26T21:11:01",
    "price": 2615,
    "vehicle": {
      "id": 48,
      "vehicle_type": "taxi",
      "brand": "Jabbersphere",
      "number_of_seats": 15,
      "photo_url": "http://columbia.edu/velit/nec/nisi/vulputate.jpg"
    },
    "agency": {
      "agency_id": 48,
      "agency_name": "Confresa",
      "phone_number": "+86 (162) 133-1205"
    },
    "station": {
      "station_id": 81,
      "station_name": "Lyons-Rice County Municipal Airport",
      "point_id": 3959311408
    },
    "origin": {
      "id": 2460908113,
      "place": "village",
      "coordinates": {
        "lat": 2.75560289970734,
        "lon": 11.8192785
      },
      "name": "Minlangmissi"
    },
    "destination": {
      "id": 2229614533,
      "place": "village",
      "coordinates": {
        "lat": 3.9968680995877364,
        "lon": 14.334561499999996
      },
      "name": "Molobo"
    },
    "stop_points": [
      {
        "id": 4248236834,
        "place": "village",
        "coordinates": {
          "lat": 5.859353999452273,
          "lon": 9.627364999999998
        },
        "name": "Ombe"
      }
    ],
    "trip_type": "inter",
    "number_of_passengers": 2,
    "number_of_reservations": 2,
    "latest_reservation_date": "2024-12-14T07:34:32",
    "luggage_types": [
      "animals",
      "electronics",
      "other"
    ],
    "standing": "vip"
  },
  {
    "trip_id": 29,
    "departure_date": "2024-12-13T16:17:27",
    "departure_time": "2024-06-27T13:37:50",
    "price": 7443,
    "vehicle": {
      "id": 22,
      "vehicle_type": "taxi",
      "brand": "Eamia",
      "number_of_seats": 15,
      "photo_url": "http://whitehouse.gov/sed/interdum/venenatis/turpis/enim/blandit.json"
    },
    "agency": {
      "agency_id": 16,
      "agency_name": "Pirapora",
      "phone_number": "+86 (849) 866-0451"
    },
    "station": {
      "station_id": 69,
      "station_name": "Bagani Airport",
      "point_id": 2386680424
    },
    "origin": {
      "id": 2461016525,
      "place": "village",
      "coordinates": {
        "lat": 5.493501599473605,
        "lon": 11.098505499999998
      },
      "name": "Mankoutmbou"
    },
    "destination": {
      "id": 3037426731,
      "place": "village",
      "coordinates": {
        "lat": 9.291119999409466,
        "lon": 13.657389800000002
      },
      "name": "Hossere"
    },
    "stop_points": [
      {
        "id": 2460974522,
        "place": "village",
        "coordinates": {
          "lat": 4.189012799570959,
          "lon": 10.5824141
        },
        "name": "Songmbom"
      },
      {
        "id": 3037843912,
        "place": "village",
        "coordinates": {
          "lat": 4.383007899554589,
          "lon": 14.1698531
        },
        "name": "Nzembeie"
      },
      {
        "id": 2461916523,
        "place": "village",
        "coordinates": {
          "lat": 2.3715515997472796,
          "lon": 14.105121199999997
        },
        "name": "Yanebot II"
      },
      {
        "id": 1067306337,
        "place": "locality",
        "coordinates": {
          "lat": 9.389354599412673,
          "lon": 13.505023799999998
        },
        "name": "Brigade de Pitoa"
      },
      {
        "id": 2462074341,
        "place": "village",
        "coordinates": {
          "lat": 4.596911099537251,
          "lon": 13.2168713
        },
        "name": "Nika"
      },
      {
        "id": 2461916281,
        "place": "village",
        "coordinates": {
          "lat": 3.597143399624304,
          "lon": 12.802513799999998
        },
        "name": "Modju"
      }
    ],
    "trip_type": "inter",
    "number_of_passengers": 10,
    "number_of_reservations": 1,
    "latest_reservation_date": "2024-08-13T07:23:22",
    "luggage_types": [
      "other",
      "electronics",
      "animals",
      "furnitures"
    ],
    "standing": "vip"
  },
  {
    "trip_id": 30,
    "departure_date": "2024-11-06T11:09:20",
    "departure_time": "2024-06-27T03:53:25",
    "price": 6486,
    "vehicle": {
      "id": 53,
      "vehicle_type": "personal_car",
      "brand": "Ozu",
      "number_of_seats": 14,
      "photo_url": "https://hc360.com/morbi/quis/tortor.xml"
    },
    "agency": {
      "agency_id": 44,
      "agency_name": "Kauehi",
      "phone_number": "+48 (886) 291-0201"
    },
    "station": {
      "station_id": 78,
      "station_name": "Butterworth Airport",
      "point_id": 2933152297
    },
    "origin": {
      "id": 3037426964,
      "place": "village",
      "coordinates": {
        "lat": 9.50566809941678,
        "lon": 14.023842099999998
      },
      "name": "Madjolde"
    },
    "destination": {
      "id": 7908548675,
      "place": "village",
      "coordinates": {
        "lat": 10.449978699462452,
        "lon": 13.9370155
      },
      "name": "Djimeta"
    },
    "stop_points": [
      {
        "id": 2467973160,
        "place": "village",
        "coordinates": {
          "lat": 5.066228899502022,
          "lon": 11.199255099999998
        },
        "name": "Béyandon"
      },
      {
        "id": 2461016779,
        "place": "village",
        "coordinates": {
          "lat": 5.416631599478446,
          "lon": 10.3191404
        },
        "name": "Ndjeghang"
      },
      {
        "id": 2467973600,
        "place": "village",
        "coordinates": {
          "lat": 4.6355203995342045,
          "lon": 10.8323807
        },
        "name": "Ndikibil"
      }
    ],
    "trip_type": "inter",
    "number_of_passengers": 6,
    "number_of_reservations": 6,
    "latest_reservation_date": "2024-08-28T13:59:33",
    "luggage_types": [
      "other",
      "furnitures",
      "animals"
    ],
    "standing": "vip"
  },
  {
    "trip_id": 31,
    "departure_date": "2024-07-23T23:49:10",
    "departure_time": "2024-06-26T16:47:53",
    "price": 6302,
    "vehicle": {
      "id": 72,
      "vehicle_type": "taxi",
      "brand": "Feedfish",
      "number_of_seats": 18,
      "photo_url": "https://networksolutions.com/mauris/eget/massa/tempor/convallis/nulla.aspx"
    },
    "agency": {
      "agency_id": 15,
      "agency_name": "Worland",
      "phone_number": "+965 (208) 833-0900"
    },
    "station": {
      "station_id": 78,
      "station_name": "Butterworth Airport",
      "point_id": 2933152297
    },
    "origin": {
      "id": 2461915706,
      "place": "village",
      "coordinates": {
        "lat": 4.100984999578575,
        "lon": 13.0722544
      },
      "name": "Abonis"
    },
    "destination": {
      "id": 3037426491,
      "place": "village",
      "coordinates": {
        "lat": 9.59908299942033,
        "lon": 13.460943999999998
      },
      "name": "Djougoundou"
    },
    "stop_points": [
      {
        "id": 501408517,
        "place": "village",
        "coordinates": {
          "lat": 9.37740519941227,
          "lon": 12.853776599999998
        },
        "name": "Bilachi"
      },
      {
        "id": 3815671598,
        "place": "village",
        "coordinates": {
          "lat": 5.097881699499793,
          "lon": 9.4369286
        },
        "name": "Badun"
      },
      {
        "id": 2877220000,
        "place": "village",
        "coordinates": {
          "lat": 10.302191599453899,
          "lon": 14.112245199999998
        },
        "name": "Houro Djkoa"
      },
      {
        "id": 3816828736,
        "place": "village",
        "coordinates": {
          "lat": 5.335443299483691,
          "lon": 9.425645599999998
        },
        "name": "Ebombome"
      },
      {
        "id": 2460974378,
        "place": "village",
        "coordinates": {
          "lat": 3.8319791996025594,
          "lon": 11.142077499999997
        },
        "name": "Manguen II"
      },
      {
        "id": 3040034959,
        "place": "village",
        "coordinates": {
          "lat": 6.424852999425139,
          "lon": 10.794069999999998
        },
        "name": "Ndu"
      }
    ],
    "trip_type": "inter",
    "number_of_passengers": 5,
    "number_of_reservations": 3,
    "latest_reservation_date": "2024-07-01T06:06:37",
    "luggage_types": [
      "other"
    ],
    "standing": "vip"
  },
  {
    "trip_id": 32,
    "departure_date": "2024-10-15T21:15:55",
    "departure_time": "2024-06-26T23:19:29",
    "price": 8380,
    "vehicle": {
      "id": 48,
      "vehicle_type": "taxi",
      "brand": "Jabbersphere",
      "number_of_seats": 15,
      "photo_url": "http://columbia.edu/velit/nec/nisi/vulputate.jpg"
    },
    "agency": {
      "agency_id": 18,
      "agency_name": null,
      "phone_number": "+351 (565) 601-9997"
    },
    "station": {
      "station_id": 52,
      "station_name": "Helsinki Malmi Airport",
      "point_id": 2933223410
    },
    "origin": {
      "id": 2462073240,
      "place": "village",
      "coordinates": {
        "lat": 4.600858699536938,
        "lon": 13.1559677
      },
      "name": "Ebolbam"
    },
    "destination": {
      "id": 2460974345,
      "place": "village",
      "coordinates": {
        "lat": 3.8482605996010784,
        "lon": 11.3687904
      },
      "name": "Kala"
    },
    "stop_points": [
      {
        "id": 2460907102,
        "place": "village",
        "coordinates": {
          "lat": 2.967052899685825,
          "lon": 11.525353599999999
        },
        "name": "Atoui"
      }
    ],
    "trip_type": "inter",
    "number_of_passengers": 13,
    "number_of_reservations": 12,
    "latest_reservation_date": "2024-09-16T16:27:18",
    "luggage_types": [
      "animals"
    ],
    "standing": "classic"
  },
  {
    "trip_id": 33,
    "departure_date": "2025-02-09T20:20:27",
    "departure_time": "2024-06-27T10:56:33",
    "price": 5183,
    "vehicle": {
      "id": 92,
      "vehicle_type": "bus",
      "brand": "Trunyx",
      "number_of_seats": 27,
      "photo_url": "http://google.com.au/ligula.jsp"
    },
    "agency": {
      "agency_id": 18,
      "agency_name": null,
      "phone_number": "+351 (565) 601-9997"
    },
    "station": {
      "station_id": 69,
      "station_name": "Bagani Airport",
      "point_id": 2386680424
    },
    "origin": {
      "id": 501526452,
      "place": "village",
      "coordinates": {
        "lat": 11.98467429957899,
        "lon": 14.6387433
      },
      "name": "Ardo Rumeila"
    },
    "destination": {
      "id": 6726414597,
      "place": "village",
      "coordinates": {
        "lat": 4.319537499559879,
        "lon": 14.848451599999999
      },
      "name": "Gbongoe II"
    },
    "stop_points": [
      {
        "id": 3815708657,
        "place": "village",
        "coordinates": {
          "lat": 5.441105899476892,
          "lon": 9.7578398
        },
        "name": "Etawang"
      }
    ],
    "trip_type": "inter",
    "number_of_passengers": 5,
    "number_of_reservations": 1,
    "latest_reservation_date": "2025-01-16T16:21:31",
    "luggage_types": [
      "normal",
      "furnitures",
      "other",
      "electronics"
    ],
    "standing": "classic"
  },
  {
    "trip_id": 34,
    "departure_date": "2025-03-28T05:05:48",
    "departure_time": "2024-06-26T20:21:17",
    "price": 9749,
    "vehicle": {
      "id": 32,
      "vehicle_type": "taxi",
      "brand": "Zoonder",
      "number_of_seats": 9,
      "photo_url": "https://weebly.com/amet/lobortis/sapien/sapien/non/mi.jpg"
    },
    "agency": {
      "agency_id": 32,
      "agency_name": "Marsabit",
      "phone_number": "+33 (303) 894-2576"
    },
    "station": {
      "station_id": 27,
      "station_name": "Çiğli Airport",
      "point_id": 3037426655
    },
    "origin": {
      "id": 2933227190,
      "place": "village",
      "coordinates": {
        "lat": 9.98377999943721,
        "lon": 14.768920099999995
      },
      "name": "Tibegue"
    },
    "destination": {
      "id": 2933226644,
      "place": "village",
      "coordinates": {
        "lat": 10.119997099444054,
        "lon": 14.309996
      },
      "name": "Malegam"
    },
    "stop_points": [
      {
        "id": 3037427459,
        "place": "village",
        "coordinates": {
          "lat": 8.492304899392586,
          "lon": 13.451134200000002
        },
        "name": "Ouro Mandara"
      }
    ],
    "trip_type": "inter",
    "number_of_passengers": 6,
    "number_of_reservations": 5,
    "latest_reservation_date": "2025-02-13T16:54:12",
    "luggage_types": [
      "normal"
    ],
    "standing": "classic"
  },
  {
    "trip_id": 35,
    "departure_date": "2024-09-24T13:02:05",
    "departure_time": "2024-06-26T19:36:41",
    "price": 3502,
    "vehicle": {
      "id": 89,
      "vehicle_type": "bike",
      "brand": "Flashdog",
      "number_of_seats": 1,
      "photo_url": "https://theglobeandmail.com/lobortis/sapien/sapien.html"
    },
    "agency": {
      "agency_id": 25,
      "agency_name": "Ambon",
      "phone_number": "+92 (637) 591-7546"
    },
    "station": {
      "station_id": 92,
      "station_name": "Fishermans Airfield",
      "point_id": 3600382095
    },
    "origin": {
      "id": 2462072771,
      "place": "village",
      "coordinates": {
        "lat": 5.69588649946145,
        "lon": 13.584744899999999
      },
      "name": "Baoko"
    },
    "destination": {
      "id": 6550868118,
      "place": "village",
      "coordinates": {
        "lat": 3.8583778996001614,
        "lon": 13.331855599999999
      },
      "name": "Kendjo"
    },
    "stop_points": [
      {
        "id": 7912828554,
        "place": "village",
        "coordinates": {
          "lat": 10.38245629945848,
          "lon": 14.117914399999998
        },
        "name": "Diguidim"
      },
      {
        "id": 2460695469,
        "place": "village",
        "coordinates": {
          "lat": 4.066720399581574,
          "lon": 10.892318599999998
        },
        "name": "Nyangbon"
      },
      {
        "id": 2467973443,
        "place": "village",
        "coordinates": {
          "lat": 4.536148499542099,
          "lon": 8.768126699999998
        },
        "name": "Kombo Adibo II"
      },
      {
        "id": 7912828549,
        "place": "village",
        "coordinates": {
          "lat": 10.334340699455717,
          "lon": 13.994457699999998
        },
        "name": "Zongoyao"
      },
      {
        "id": 2284173456,
        "place": "locality",
        "coordinates": {
          "lat": 3.8369204996021105,
          "lon": 11.497098799999998
        },
        "name": "Mekoa"
      }
    ],
    "trip_type": "inter",
    "number_of_passengers": 1,
    "number_of_reservations": 0,
    "latest_reservation_date": "2024-08-12T04:39:42",
    "luggage_types": [
      "furnitures",
      "other",
      "normal",
      "electronics",
      "animals"
    ],
    "standing": "vip"
  },
  {
    "trip_id": 36,
    "departure_date": "2025-02-17T02:07:38",
    "departure_time": "2024-06-26T17:34:43",
    "price": 9336,
    "vehicle": {
      "id": 50,
      "vehicle_type": "bus",
      "brand": "Vitz",
      "number_of_seats": 5,
      "photo_url": "https://bandcamp.com/porttitor.html"
    },
    "agency": {
      "agency_id": 17,
      "agency_name": "Akure",
      "phone_number": "+84 (594) 438-3376"
    },
    "station": {
      "station_id": 77,
      "station_name": "Kribi Airport",
      "point_id": 3037426355
    },
    "origin": {
      "id": 3975723803,
      "place": "locality",
      "coordinates": {
        "lat": 5.573849899468676,
        "lon": 10.3071089
      },
      "name": "Batoula II"
    },
    "destination": {
      "id": 3783278536,
      "place": "village",
      "coordinates": {
        "lat": 4.81267649952056,
        "lon": 11.0909089
      },
      "name": "Bébisse"
    },
    "stop_points": [
      {
        "id": 6775208608,
        "place": "village",
        "coordinates": {
          "lat": 12.351446799613415,
          "lon": 14.8943281
        },
        "name": "Naïra"
      },
      {
        "id": 1067301052,
        "place": "locality",
        "coordinates": {
          "lat": 9.569889999419196,
          "lon": 13.601416
        },
        "name": "Chefferie de Sokanga II"
      },
      {
        "id": 2933161233,
        "place": "village",
        "coordinates": {
          "lat": 11.018499999499953,
          "lon": 14.284699899999998
        },
        "name": "Mouyoure_talla_lawan"
      },
      {
        "id": 2461916273,
        "place": "village",
        "coordinates": {
          "lat": 3.4241410996407606,
          "lon": 12.691328399999998
        },
        "name": "Minlo II"
      },
      {
        "id": 3037426546,
        "place": "village",
        "coordinates": {
          "lat": 10.775759899483075,
          "lon": 13.841520099999999
        },
        "name": "Dzavaya"
      }
    ],
    "trip_type": "inter",
    "number_of_passengers": 5,
    "number_of_reservations": 3,
    "latest_reservation_date": "2024-07-17T14:36:32",
    "luggage_types": [
      "other",
      "animals",
      "electronics",
      "furnitures"
    ],
    "standing": "vip"
  },
  {
    "trip_id": 37,
    "departure_date": "2025-04-04T22:50:31",
    "departure_time": "2024-06-27T02:25:03",
    "price": 8884,
    "vehicle": {
      "id": 77,
      "vehicle_type": "taxi",
      "brand": "Ozu",
      "number_of_seats": 19,
      "photo_url": "https://phoca.cz/fusce/consequat/nulla/nisl.png"
    },
    "agency": {
      "agency_id": 31,
      "agency_name": "Fort Campbell/Hopkinsville",
      "phone_number": "+45 (843) 204-1655"
    },
    "station": {
      "station_id": 29,
      "station_name": "Alverca Air Base",
      "point_id": 2462074338
    },
    "origin": {
      "id": 6503460240,
      "place": "village",
      "coordinates": {
        "lat": 8.86152409939834,
        "lon": 13.468256899999998
      },
      "name": "Winde Djaman"
    },
    "destination": {
      "id": 3037427313,
      "place": "village",
      "coordinates": {
        "lat": 10.527989999467176,
        "lon": 14.0056099
      },
      "name": "Motso"
    },
    "stop_points": [
      {
        "id": 2460907387,
        "place": "village",
        "coordinates": {
          "lat": 3.4049995996426037,
          "lon": 12.072617899999997
        },
        "name": "Efoulan"
      },
      {
        "id": 2461916193,
        "place": "village",
        "coordinates": {
          "lat": 4.314993699560259,
          "lon": 12.6211582
        },
        "name": "Mboké"
      },
      {
        "id": 5936358166,
        "place": "village",
        "coordinates": {
          "lat": 4.3178455995600205,
          "lon": 11.351402599999998
        },
        "name": "Nkoltégué"
      },
      {
        "id": 2933152244,
        "place": "village",
        "coordinates": {
          "lat": 12.438232199621876,
          "lon": 14.285287300000002
        },
        "name": "Djouka"
      }
    ],
    "trip_type": "inter",
    "number_of_passengers": 14,
    "number_of_reservations": 11,
    "latest_reservation_date": "2025-01-17T18:47:05",
    "luggage_types": [],
    "standing": "vip"
  },
  {
    "trip_id": 38,
    "departure_date": "2024-10-10T06:06:40",
    "departure_time": "2024-06-27T04:24:57",
    "price": 2642,
    "vehicle": {
      "id": 30,
      "vehicle_type": "personal_car",
      "brand": "Eamia",
      "number_of_seats": 26,
      "photo_url": "http://de.vu/in/tempor/turpis.json"
    },
    "agency": {
      "agency_id": 33,
      "agency_name": "Maiduguri",
      "phone_number": "+420 (241) 255-1669"
    },
    "station": {
      "station_id": 1,
      "station_name": "Vaasa Airport",
      "point_id": 2460695334
    },
    "origin": {
      "id": 2461916349,
      "place": "village",
      "coordinates": {
        "lat": 2.793463799703461,
        "lon": 14.521446200000002
      },
      "name": "Ngato ancien"
    },
    "destination": {
      "id": 3976031646,
      "place": "locality",
      "coordinates": {
        "lat": 5.43859679947705,
        "lon": 10.151848099999999
      },
      "name": "Mena'"
    },
    "stop_points": [
      {
        "id": 3037426424,
        "place": "village",
        "coordinates": {
          "lat": 9.923640099434337,
          "lon": 13.985179899999999
        },
        "name": "Dibbi"
      },
      {
        "id": 3001394275,
        "place": "village",
        "coordinates": {
          "lat": 12.237704599602507,
          "lon": 14.5968774
        },
        "name": "Fadjé"
      },
      {
        "id": 2461016248,
        "place": "village",
        "coordinates": {
          "lat": 5.262074499488544,
          "lon": 9.977019099999998
        },
        "name": "Fongwang"
      },
      {
        "id": 3675593407,
        "place": "village",
        "coordinates": {
          "lat": 4.19119569957077,
          "lon": 9.7235108
        },
        "name": "Yalouka"
      },
      {
        "id": 3037426691,
        "place": "village",
        "coordinates": {
          "lat": 8.748529999396204,
          "lon": 14.233809999999998
        },
        "name": "Guirling"
      }
    ],
    "trip_type": "inter",
    "number_of_passengers": 14,
    "number_of_reservations": 1,
    "latest_reservation_date": "2024-08-07T12:22:02",
    "luggage_types": [
      "normal",
      "other"
    ],
    "standing": "classic"
  },
  {
    "trip_id": 39,
    "departure_date": "2025-01-28T03:22:49",
    "departure_time": "2024-06-27T02:57:00",
    "price": 1622,
    "vehicle": {
      "id": 41,
      "vehicle_type": "bus",
      "brand": "Meevee",
      "number_of_seats": 21,
      "photo_url": "https://statcounter.com/mattis/pulvinar/nulla/pede.json"
    },
    "agency": {
      "agency_id": 29,
      "agency_name": "Fakfak-Papua Island",
      "phone_number": "+30 (344) 399-7436"
    },
    "station": {
      "station_id": 63,
      "station_name": "Captain Auguste George Airport",
      "point_id": 7798249071
    },
    "origin": {
      "id": 6181430661,
      "place": "village",
      "coordinates": {
        "lat": 4.094560999579136,
        "lon": 11.2063551
      },
      "name": "Doumassi"
    },
    "destination": {
      "id": 2461916022,
      "place": "village",
      "coordinates": {
        "lat": 4.345794099557684,
        "lon": 14.795681199999999
      },
      "name": "Konga II"
    },
    "stop_points": [],
    "trip_type": "inter",
    "number_of_passengers": 7,
    "number_of_reservations": 2,
    "latest_reservation_date": "2024-12-11T13:23:57",
    "luggage_types": [
      "furnitures"
    ],
    "standing": "vip"
  },
  {
    "trip_id": 40,
    "departure_date": "2024-10-19T03:27:23",
    "departure_time": "2024-06-27T08:37:03",
    "price": 1048,
    "vehicle": {
      "id": 33,
      "vehicle_type": "bike",
      "brand": "Babbleblab",
      "number_of_seats": 2,
      "photo_url": "https://tumblr.com/proin/eu/mi/nulla.png"
    },
    "agency": {
      "agency_id": 28,
      "agency_name": "Maringá",
      "phone_number": "+86 (120) 657-3031"
    },
    "station": {
      "station_id": 79,
      "station_name": "Summit Airport",
      "point_id": 2461016231
    },
    "origin": {
      "id": 2467814418,
      "place": "village",
      "coordinates": {
        "lat": 4.511247699544102,
        "lon": 10.3677151
      },
      "name": "Fangué"
    },
    "destination": {
      "id": 2456087161,
      "place": "locality",
      "coordinates": {
        "lat": 4.019559499585727,
        "lon": 9.2098244
      },
      "name": "Casava Farm"
    },
    "stop_points": [
      {
        "id": 2461916288,
        "place": "village",
        "coordinates": {
          "lat": 4.0701912995812695,
          "lon": 14.4866547
        },
        "name": "Mongobia"
      },
      {
        "id": 5916321214,
        "place": "square",
        "coordinates": {
          "lat": 7.32900119939758,
          "lon": 13.590276999999999
        },
        "name": "Carrefour Sabongari"
      }
    ],
    "trip_type": "inter",
    "number_of_passengers": 1,
    "number_of_reservations": 1,
    "latest_reservation_date": "2024-07-13T19:56:41",
    "luggage_types": [
      "furnitures",
      "electronics",
      "other",
      "normal"
    ],
    "standing": "vip"
  },
  {
    "trip_id": 41,
    "departure_date": "2024-07-25T21:40:37",
    "departure_time": "2024-06-27T12:30:22",
    "price": 2877,
    "vehicle": {
      "id": 81,
      "vehicle_type": "personal_car",
      "brand": "Roombo",
      "number_of_seats": 30,
      "photo_url": "http://freewebs.com/vitae/nisl/aenean/lectus/pellentesque.jsp"
    },
    "agency": {
      "agency_id": 24,
      "agency_name": "Jurado",
      "phone_number": "+351 (737) 697-0814"
    },
    "station": {
      "station_id": 97,
      "station_name": "Koumala Airport",
      "point_id": 2933225788
    },
    "origin": {
      "id": 4984567888,
      "place": "village",
      "coordinates": {
        "lat": 12.159284699595107,
        "lon": 14.765456
      },
      "name": "Aminikéir"
    },
    "destination": {
      "id": 2461915724,
      "place": "village",
      "coordinates": {
        "lat": 3.0354946996789445,
        "lon": 13.660804899999999
      },
      "name": "Akonétsé"
    },
    "stop_points": [
      {
        "id": 7162559260,
        "place": "locality",
        "coordinates": {
          "lat": 3.8468289996012097,
          "lon": 11.450976499999998
        },
        "name": "Rue De L'histoire"
      },
      {
        "id": 2933225788,
        "place": "village",
        "coordinates": {
          "lat": 10.000799999438044,
          "lon": 15.4186999
        },
        "name": "Gobo Centre"
      },
      {
        "id": 3037427867,
        "place": "village",
        "coordinates": {
          "lat": 7.249517799399186,
          "lon": 13.554193799999998
        },
        "name": "Wakwa"
      },
      {
        "id": 2933225707,
        "place": "village",
        "coordinates": {
          "lat": 10.672899999476304,
          "lon": 14.247079899999997
        },
        "name": "Djebbe"
      }
    ],
    "trip_type": "inter",
    "number_of_passengers": 24,
    "number_of_reservations": 13,
    "latest_reservation_date": "2024-07-10T18:24:48",
    "luggage_types": [
      "other",
      "animals",
      "normal",
      "electronics",
      "furnitures"
    ],
    "standing": "classic"
  },
  {
    "trip_id": 42,
    "departure_date": "2025-04-04T09:57:07",
    "departure_time": "2024-06-26T17:08:32",
    "price": 8753,
    "vehicle": {
      "id": 45,
      "vehicle_type": "personal_car",
      "brand": "Yoveo",
      "number_of_seats": 20,
      "photo_url": "https://flavors.me/luctus/nec.jsp"
    },
    "agency": {
      "agency_id": 19,
      "agency_name": "Mazatlán",
      "phone_number": "+385 (425) 492-1348"
    },
    "station": {
      "station_id": 55,
      "station_name": "Tamana Island Airport",
      "point_id": 3976031643
    },
    "origin": {
      "id": 2467814057,
      "place": "village",
      "coordinates": {
        "lat": 4.1063787995781045,
        "lon": 9.1996219
      },
      "name": "Likombe"
    },
    "destination": {
      "id": 2461915790,
      "place": "village",
      "coordinates": {
        "lat": 4.121116999576823,
        "lon": 12.822274999999998
      },
      "name": "Bagbezé"
    },
    "stop_points": [],
    "trip_type": "inter",
    "number_of_passengers": 9,
    "number_of_reservations": 0,
    "latest_reservation_date": "2025-02-16T23:14:31",
    "luggage_types": [
      "electronics"
    ],
    "standing": "vip"
  },
  {
    "trip_id": 43,
    "departure_date": "2024-07-30T23:19:26",
    "departure_time": "2024-06-27T12:11:06",
    "price": 8063,
    "vehicle": {
      "id": 18,
      "vehicle_type": "bus",
      "brand": "Thoughtblab",
      "number_of_seats": 24,
      "photo_url": "http://japanpost.jp/orci/eget/orci/vehicula.xml"
    },
    "agency": {
      "agency_id": 27,
      "agency_name": "Akrotiri",
      "phone_number": "+46 (121) 699-9710"
    },
    "station": {
      "station_id": 31,
      "station_name": "Agen-La Garenne Airport",
      "point_id": 3967804447
    },
    "origin": {
      "id": 2460663515,
      "place": "village",
      "coordinates": {
        "lat": 3.0788719996746066,
        "lon": 11.374295699999998
      },
      "name": "Nyiemeyong"
    },
    "destination": {
      "id": 3784859942,
      "place": "town",
      "coordinates": {
        "lat": 5.690986199461735,
        "lon": 10.366213
      },
      "name": "Galim"
    },
    "stop_points": [
      {
        "id": 2461015781,
        "place": "village",
        "coordinates": {
          "lat": 6.454983999423902,
          "lon": 10.186545999999998
        },
        "name": "Awi"
      }
    ],
    "trip_type": "inter",
    "number_of_passengers": 22,
    "number_of_reservations": 22,
    "latest_reservation_date": "2024-07-30T17:41:51",
    "luggage_types": [],
    "standing": "classic"
  },
  {
    "trip_id": 44,
    "departure_date": "2025-04-07T22:06:21",
    "departure_time": "2024-06-26T18:20:09",
    "price": 7768,
    "vehicle": {
      "id": 69,
      "vehicle_type": "bus",
      "brand": "Gabtype",
      "number_of_seats": 6,
      "photo_url": "http://wix.com/nonummy/maecenas/tincidunt/lacus.aspx"
    },
    "agency": {
      "agency_id": 46,
      "agency_name": "Melo",
      "phone_number": "+86 (411) 126-9527"
    },
    "station": {
      "station_id": 32,
      "station_name": "Coonabarabran Airport",
      "point_id": 2460695574
    },
    "origin": {
      "id": 4536692524,
      "place": "locality",
      "coordinates": {
        "lat": 4.0198626995856985,
        "lon": 9.7011758
      },
      "name": "Carrefour de l'Air"
    },
    "destination": {
      "id": 4165270099,
      "place": "village",
      "coordinates": {
        "lat": 12.39818599961796,
        "lon": 14.833046999999997
      },
      "name": "Amourichade"
    },
    "stop_points": [
      {
        "id": 6383896553,
        "place": "quarter",
        "coordinates": {
          "lat": 5.476694099474652,
          "lon": 10.081715599999999
        },
        "name": "Nteu"
      },
      {
        "id": 3965565599,
        "place": "village",
        "coordinates": {
          "lat": 12.930600399671915,
          "lon": 14.5524368
        },
        "name": "Goré Gotta"
      },
      {
        "id": 2460907832,
        "place": "village",
        "coordinates": {
          "lat": 2.759726599706917,
          "lon": 11.716448599999998
        },
        "name": "Mbounezok"
      },
      {
        "id": 2461016745,
        "place": "village",
        "coordinates": {
          "lat": 5.220249699491359,
          "lon": 9.515142799999998
        },
        "name": "Mungo Ndor"
      }
    ],
    "trip_type": "inter",
    "number_of_passengers": 5,
    "number_of_reservations": 2,
    "latest_reservation_date": "2024-11-01T13:53:12",
    "luggage_types": [
      "electronics"
    ],
    "standing": "classic"
  },
  {
    "trip_id": 45,
    "departure_date": "2025-05-20T09:32:25",
    "departure_time": "2024-06-27T01:42:19",
    "price": 8141,
    "vehicle": {
      "id": 26,
      "vehicle_type": "personal_car",
      "brand": "Thoughtbridge",
      "number_of_seats": 24,
      "photo_url": "http://mozilla.com/in/magna/bibendum/imperdiet/nullam.json"
    },
    "agency": {
      "agency_id": 38,
      "agency_name": "Albuquerque",
      "phone_number": "+86 (894) 569-2645"
    },
    "station": {
      "station_id": 90,
      "station_name": "Page Municipal Airport",
      "point_id": 2467972989
    },
    "origin": {
      "id": 2284209724,
      "place": "locality",
      "coordinates": {
        "lat": 3.879338399598262,
        "lon": 11.549718599999999
      },
      "name": "Kong"
    },
    "destination": {
      "id": 2460907829,
      "place": "village",
      "coordinates": {
        "lat": 2.901609699692443,
        "lon": 11.9385673
      },
      "name": "Mboun"
    },
    "stop_points": [
      {
        "id": 5936358421,
        "place": "village",
        "coordinates": {
          "lat": 4.294782999561959,
          "lon": 11.3008443
        },
        "name": "Bilik-Bindik"
      },
      {
        "id": 2460907176,
        "place": "village",
        "coordinates": {
          "lat": 3.569182799626939,
          "lon": 11.9946853
        },
        "name": "Biba"
      },
      {
        "id": 3421666568,
        "place": "city",
        "coordinates": {
          "lat": 4.739933099526094,
          "lon": 11.2205928
        },
        "name": "Bafia"
      },
      {
        "id": 3037427929,
        "place": "village",
        "coordinates": {
          "lat": 10.63465769947385,
          "lon": 13.898831299999998
        },
        "name": "Zamai"
      },
      {
        "id": 2467972993,
        "place": "village",
        "coordinates": {
          "lat": 4.413171699552097,
          "lon": 11.638995999999999
        },
        "name": "Biatsota II"
      }
    ],
    "trip_type": "inter",
    "number_of_passengers": 16,
    "number_of_reservations": 5,
    "latest_reservation_date": "2025-02-18T18:34:16",
    "luggage_types": [
      "normal",
      "other"
    ],
    "standing": "classic"
  },
  {
    "trip_id": 46,
    "departure_date": "2024-07-02T13:40:57",
    "departure_time": "2024-06-26T16:59:37",
    "price": 5351,
    "vehicle": {
      "id": 100,
      "vehicle_type": "taxi",
      "brand": "Katz",
      "number_of_seats": 2,
      "photo_url": "http://nifty.com/odio/condimentum/id/luctus/nec/molestie/sed.html"
    },
    "agency": {
      "agency_id": 13,
      "agency_name": "Ballina",
      "phone_number": "+62 (838) 148-5452"
    },
    "station": {
      "station_id": 61,
      "station_name": "Stavropol Shpakovskoye Airport",
      "point_id": 6503460253
    },
    "origin": {
      "id": 2284173456,
      "place": "locality",
      "coordinates": {
        "lat": 3.8369204996021105,
        "lon": 11.497098799999998
      },
      "name": "Mekoa"
    },
    "destination": {
      "id": 9428551151,
      "place": "village",
      "coordinates": {
        "lat": 2.5860155997248535,
        "lon": 9.833831199999999
      },
      "name": "Likado"
    },
    "stop_points": [
      {
        "id": 3975717101,
        "place": "locality",
        "coordinates": {
          "lat": 5.563418299469309,
          "lon": 10.2672268
        },
        "name": "Batchuetio"
      },
      {
        "id": 2461916179,
        "place": "village",
        "coordinates": {
          "lat": 4.242267799566404,
          "lon": 13.4342608
        },
        "name": "Mbama"
      },
      {
        "id": 4118447451,
        "place": "isolated_dwelling",
        "coordinates": {
          "lat": 10.54726969946836,
          "lon": 14.173084799999998
        },
        "name": "Ouro Djaligué"
      },
      {
        "id": 2461016959,
        "place": "village",
        "coordinates": {
          "lat": 6.355594299428066,
          "lon": 11.1324109
        },
        "name": "Nking"
      },
      {
        "id": 501450508,
        "place": "village",
        "coordinates": {
          "lat": 11.86858489956857,
          "lon": 14.600029099999997
        },
        "name": "Lefiya"
      }
    ],
    "trip_type": "inter",
    "number_of_passengers": 1,
    "number_of_reservations": 1,
    "latest_reservation_date": "2024-07-01T21:09:10",
    "luggage_types": [
      "normal",
      "furnitures",
      "other"
    ],
    "standing": "classic"
  },
  {
    "trip_id": 47,
    "departure_date": "2024-07-06T13:48:03",
    "departure_time": "2024-06-27T09:55:35",
    "price": 4273,
    "vehicle": {
      "id": 25,
      "vehicle_type": "bus",
      "brand": "Feedbug",
      "number_of_seats": 12,
      "photo_url": "https://free.fr/nulla/mollis/molestie.html"
    },
    "agency": {
      "agency_id": 3,
      "agency_name": "Kimsquit Valley",
      "phone_number": "+60 (657) 862-4823"
    },
    "station": {
      "station_id": 77,
      "station_name": "Kribi Airport",
      "point_id": 3037426355
    },
    "origin": {
      "id": 6915401076,
      "place": "village",
      "coordinates": {
        "lat": 4.265230799564456,
        "lon": 13.813226099999998
      },
      "name": "Djal"
    },
    "destination": {
      "id": 2933226131,
      "place": "village",
      "coordinates": {
        "lat": 10.346599999456418,
        "lon": 14.8165999
      },
      "name": "Guidoua"
    },
    "stop_points": [
      {
        "id": 2467973847,
        "place": "village",
        "coordinates": {
          "lat": 5.420253699478215,
          "lon": 11.861161599999999
        },
        "name": "Tiofou"
      },
      {
        "id": 3037751532,
        "place": "village",
        "coordinates": {
          "lat": 6.006824199444496,
          "lon": 14.420998800000001
        },
        "name": "Wendoka"
      },
      {
        "id": 5936358321,
        "place": "village",
        "coordinates": {
          "lat": 4.312616799560459,
          "lon": 11.492210399999998
        },
        "name": "Nkolméki"
      },
      {
        "id": 5936358357,
        "place": "village",
        "coordinates": {
          "lat": 4.242603699566376,
          "lon": 11.3908822
        },
        "name": "Nkolkayi"
      },
      {
        "id": 2460907878,
        "place": "village",
        "coordinates": {
          "lat": 3.2229746996603277,
          "lon": 11.9868629
        },
        "name": "Mekalat"
      },
      {
        "id": 2933225770,
        "place": "village",
        "coordinates": {
          "lat": 10.224169999449588,
          "lon": 14.553098999999998
        },
        "name": "Gakayel"
      }
    ],
    "trip_type": "inter",
    "number_of_passengers": 10,
    "number_of_reservations": 0,
    "latest_reservation_date": "2024-07-01T14:05:56",
    "luggage_types": [
      "furnitures",
      "electronics",
      "normal"
    ],
    "standing": "vip"
  },
  {
    "trip_id": 48,
    "departure_date": "2025-01-05T10:47:23",
    "departure_time": "2024-06-27T07:42:44",
    "price": 4690,
    "vehicle": {
      "id": 52,
      "vehicle_type": "taxi",
      "brand": "Demizz",
      "number_of_seats": 26,
      "photo_url": "https://over-blog.com/donec/odio/justo/sollicitudin.png"
    },
    "agency": {
      "agency_id": 22,
      "agency_name": "Sandringham Station",
      "phone_number": "+976 (782) 525-9086"
    },
    "station": {
      "station_id": 7,
      "station_name": "Enterprise Municipal Airport",
      "point_id": 4775146513
    },
    "origin": {
      "id": 3037426947,
      "place": "village",
      "coordinates": {
        "lat": 10.257446099451407,
        "lon": 13.9031102
      },
      "name": "Louguere So'o"
    },
    "destination": {
      "id": 2461016760,
      "place": "village",
      "coordinates": {
        "lat": 6.43451919942474,
        "lon": 11.3914039
      },
      "name": "Nassarao"
    },
    "stop_points": [
      {
        "id": 7644291806,
        "place": "locality",
        "coordinates": {
          "lat": 4.140199999575168,
          "lon": 10.1570995
        },
        "name": "Mbocmarcora"
      },
      {
        "id": 2460907605,
        "place": "village",
        "coordinates": {
          "lat": 3.5500139996287507,
          "lon": 11.0944327
        },
        "name": "Kaya"
      },
      {
        "id": 3037427544,
        "place": "village",
        "coordinates": {
          "lat": 9.584155999419746,
          "lon": 13.625012899999998
        },
        "name": "Pena"
      },
      {
        "id": 3779376729,
        "place": "village",
        "coordinates": {
          "lat": 4.360661199556445,
          "lon": 11.042260699999998
        },
        "name": "Boupili"
      },
      {
        "id": 2460908172,
        "place": "village",
        "coordinates": {
          "lat": 3.6723587996172617,
          "lon": 12.2547634
        },
        "name": "Ndibidjeng"
      }
    ],
    "trip_type": "inter",
    "number_of_passengers": 20,
    "number_of_reservations": 13,
    "latest_reservation_date": "2024-09-13T03:08:04",
    "luggage_types": [
      "normal",
      "other",
      "electronics",
      "furnitures",
      "animals"
    ],
    "standing": "vip"
  },
  {
    "trip_id": 49,
    "departure_date": "2025-04-05T01:25:50",
    "departure_time": "2024-06-26T21:21:33",
    "price": 7314,
    "vehicle": {
      "id": 50,
      "vehicle_type": "bus",
      "brand": "Vitz",
      "number_of_seats": 5,
      "photo_url": "https://bandcamp.com/porttitor.html"
    },
    "agency": {
      "agency_id": 36,
      "agency_name": "Creston",
      "phone_number": "+7 (693) 157-9009"
    },
    "station": {
      "station_id": 30,
      "station_name": "Plymouth Municipal Airport",
      "point_id": 3001317285
    },
    "origin": {
      "id": 2461916232,
      "place": "village",
      "coordinates": {
        "lat": 3.4775982996356376,
        "lon": 15.0482229
      },
      "name": "Mendoungue"
    },
    "destination": {
      "id": 3037426914,
      "place": "village",
      "coordinates": {
        "lat": 9.902669999433352,
        "lon": 13.3452698
      },
      "name": "Laria"
    },
    "stop_points": [],
    "trip_type": "inter",
    "number_of_passengers": 1,
    "number_of_reservations": 0,
    "latest_reservation_date": "2024-08-24T14:00:51",
    "luggage_types": [
      "other"
    ],
    "standing": "vip"
  },
  {
    "trip_id": 50,
    "departure_date": "2025-03-05T07:50:53",
    "departure_time": "2024-06-26T19:59:27",
    "price": 9335,
    "vehicle": {
      "id": 44,
      "vehicle_type": "personal_car",
      "brand": "Kare",
      "number_of_seats": 4,
      "photo_url": "http://yahoo.com/eu/tincidunt/in/leo/maecenas/pulvinar.png"
    },
    "agency": {
      "agency_id": 42,
      "agency_name": "Rukumkot",
      "phone_number": "+48 (574) 513-2104"
    },
    "station": {
      "station_id": 47,
      "station_name": "Moenjodaro Airport",
      "point_id": 10883184035
    },
    "origin": {
      "id": 2933161281,
      "place": "village",
      "coordinates": {
        "lat": 10.90239999949172,
        "lon": 14.228700099999998
      },
      "name": "Tindirme_wailam"
    },
    "destination": {
      "id": 2467973612,
      "place": "village",
      "coordinates": {
        "lat": 4.5692373995394515,
        "lon": 10.7108017
      },
      "name": "Ndokbassabon"
    },
    "stop_points": [
      {
        "id": 2460907015,
        "place": "village",
        "coordinates": {
          "lat": 2.648694199718355,
          "lon": 11.7038459
        },
        "name": "Adjap"
      },
      {
        "id": 2461016323,
        "place": "village",
        "coordinates": {
          "lat": 6.4579996994237785,
          "lon": 10.2949303
        },
        "name": "Kam"
      },
      {
        "id": 3976124435,
        "place": "locality",
        "coordinates": {
          "lat": 5.448108699476449,
          "lon": 10.222023199999999
        },
        "name": "Metchou II"
      },
      {
        "id": 7137060526,
        "place": "village",
        "coordinates": {
          "lat": 11.725637099556062,
          "lon": 15.0250078
        },
        "name": "Nmboudoufka"
      },
      {
        "id": 4839621032,
        "place": "locality",
        "coordinates": {
          "lat": 4.972622999508725,
          "lon": 10.165378999999998
        },
        "name": "Sakong"
      }
    ],
    "trip_type": "inter",
    "number_of_passengers": 1,
    "number_of_reservations": 0,
    "latest_reservation_date": "2024-09-23T11:50:23",
    "luggage_types": [
      "electronics",
      "other",
      "animals"
    ],
    "standing": "classic"
  },
  {
    "trip_id": 51,
    "departure_date": "2024-08-31T01:37:43",
    "departure_time": "2024-06-26T23:02:08",
    "price": 7424,
    "vehicle": {
      "id": 24,
      "vehicle_type": "personal_car",
      "brand": "Photobug",
      "number_of_seats": 12,
      "photo_url": "https://paypal.com/a/nibh.aspx"
    },
    "agency": {
      "agency_id": 30,
      "agency_name": "La Grande",
      "phone_number": "+62 (667) 699-0034"
    },
    "station": {
      "station_id": 19,
      "station_name": "Ocean Falls Seaplane Base",
      "point_id": 2933226681
    },
    "origin": {
      "id": 7139649546,
      "place": "village",
      "coordinates": {
        "lat": 12.561768499634113,
        "lon": 14.7405623
      },
      "name": "Amsera"
    },
    "destination": {
      "id": 2467814228,
      "place": "village",
      "coordinates": {
        "lat": 4.8065917995210174,
        "lon": 9.665030099999997
      },
      "name": "Mbule"
    },
    "stop_points": [],
    "trip_type": "inter",
    "number_of_passengers": 10,
    "number_of_reservations": 6,
    "latest_reservation_date": "2024-08-14T00:46:41",
    "luggage_types": [
      "normal",
      "animals",
      "furnitures"
    ],
    "standing": "classic"
  },
  {
    "trip_id": 52,
    "departure_date": "2025-05-23T11:13:59",
    "departure_time": "2024-06-27T13:46:06",
    "price": 2548,
    "vehicle": {
      "id": 51,
      "vehicle_type": "personal_car",
      "brand": "Voonte",
      "number_of_seats": 23,
      "photo_url": "https://webeden.co.uk/lorem/ipsum/dolor/sit.aspx"
    },
    "agency": {
      "agency_id": 15,
      "agency_name": "Worland",
      "phone_number": "+965 (208) 833-0900"
    },
    "station": {
      "station_id": 33,
      "station_name": "Cloncurry Airport",
      "point_id": 2461916409
    },
    "origin": {
      "id": 2461915820,
      "place": "village",
      "coordinates": {
        "lat": 2.781937199704641,
        "lon": 13.355683699999998
      },
      "name": "Bi"
    },
    "destination": {
      "id": 6673896914,
      "place": "locality",
      "coordinates": {
        "lat": 9.29279899940952,
        "lon": 13.3859651
      },
      "name": "Carrefour Canari"
    },
    "stop_points": [],
    "trip_type": "inter",
    "number_of_passengers": 16,
    "number_of_reservations": 3,
    "latest_reservation_date": "2025-04-20T13:01:00",
    "luggage_types": [
      "furnitures",
      "other",
      "animals",
      "normal"
    ],
    "standing": "vip"
  },
  {
    "trip_id": 53,
    "departure_date": "2024-08-08T05:17:29",
    "departure_time": "2024-06-27T11:24:33",
    "price": 4885,
    "vehicle": {
      "id": 53,
      "vehicle_type": "personal_car",
      "brand": "Ozu",
      "number_of_seats": 14,
      "photo_url": "https://hc360.com/morbi/quis/tortor.xml"
    },
    "agency": {
      "agency_id": 2,
      "agency_name": "Springfield/Chicopee",
      "phone_number": "+351 (554) 131-1223"
    },
    "station": {
      "station_id": 94,
      "station_name": "False Island Seaplane Base",
      "point_id": 1067306324
    },
    "origin": {
      "id": 3037426362,
      "place": "village",
      "coordinates": {
        "lat": 8.96763999940065,
        "lon": 14.2273102
      },
      "name": "Bounbou"
    },
    "destination": {
      "id": 2933226126,
      "place": "town",
      "coordinates": {
        "lat": 10.026649099439316,
        "lon": 15.2556306
      },
      "name": "Guere"
    },
    "stop_points": [
      {
        "id": 2461016237,
        "place": "village",
        "coordinates": {
          "lat": 5.4472948994765,
          "lon": 9.923994199999997
        },
        "name": "Fomba"
      },
      {
        "id": 2460907406,
        "place": "village",
        "coordinates": {
          "lat": 3.6215899996220067,
          "lon": 11.9965886
        },
        "name": "Ekombitié"
      },
      {
        "id": 6915157203,
        "place": "village",
        "coordinates": {
          "lat": 4.1666643995728805,
          "lon": 14.6495816
        },
        "name": "Belingou"
      },
      {
        "id": 331136682,
        "place": "city",
        "coordinates": {
          "lat": 3.868986699599199,
          "lon": 11.5213344
        },
        "name": "Yaoundé"
      },
      {
        "id": 9240508146,
        "place": "village",
        "coordinates": {
          "lat": 7.0917897994028545,
          "lon": 13.854875599999998
        },
        "name": "Wari"
      },
      {
        "id": 7137060578,
        "place": "village",
        "coordinates": {
          "lat": 11.819775099564252,
          "lon": 14.9657244
        },
        "name": "Goudjeri"
      }
    ],
    "trip_type": "inter",
    "number_of_passengers": 13,
    "number_of_reservations": 11,
    "latest_reservation_date": "2024-07-29T16:08:59",
    "luggage_types": [
      "other",
      "furnitures"
    ],
    "standing": "vip"
  },
  {
    "trip_id": 54,
    "departure_date": "2025-03-30T18:34:32",
    "departure_time": "2024-06-27T10:32:31",
    "price": 3906,
    "vehicle": {
      "id": 44,
      "vehicle_type": "personal_car",
      "brand": "Kare",
      "number_of_seats": 4,
      "photo_url": "http://yahoo.com/eu/tincidunt/in/leo/maecenas/pulvinar.png"
    },
    "agency": {
      "agency_id": 48,
      "agency_name": "Confresa",
      "phone_number": "+86 (162) 133-1205"
    },
    "station": {
      "station_id": 35,
      "station_name": "Natashquan Airport",
      "point_id": 3779577728
    },
    "origin": {
      "id": 2460907849,
      "place": "village",
      "coordinates": {
        "lat": 2.324041599752285,
        "lon": 12.093837899999999
      },
      "name": "Mebang"
    },
    "destination": {
      "id": 2460663081,
      "place": "village",
      "coordinates": {
        "lat": 3.236776099658972,
        "lon": 11.321809199999999
      },
      "name": "Mimetala"
    },
    "stop_points": [],
    "trip_type": "inter",
    "number_of_passengers": 1,
    "number_of_reservations": 1,
    "latest_reservation_date": "2025-01-09T09:41:43",
    "luggage_types": [],
    "standing": "classic"
  },
  {
    "trip_id": 55,
    "departure_date": "2024-07-13T01:49:42",
    "departure_time": "2024-06-27T10:12:45",
    "price": 6825,
    "vehicle": {
      "id": 18,
      "vehicle_type": "bus",
      "brand": "Thoughtblab",
      "number_of_seats": 24,
      "photo_url": "http://japanpost.jp/orci/eget/orci/vehicula.xml"
    },
    "agency": {
      "agency_id": 23,
      "agency_name": "Kudahuvadhoo",
      "phone_number": "+62 (586) 466-1760"
    },
    "station": {
      "station_id": 75,
      "station_name": "Blythe Airport",
      "point_id": 2460907036
    },
    "origin": {
      "id": 2460907090,
      "place": "village",
      "coordinates": {
        "lat": 3.158332299666708,
        "lon": 11.6427835
      },
      "name": "Assam"
    },
    "destination": {
      "id": 2460907505,
      "place": "village",
      "coordinates": {
        "lat": 3.7727506996079754,
        "lon": 11.7895304
      },
      "name": "Essong"
    },
    "stop_points": [
      {
        "id": 2462072605,
        "place": "village",
        "coordinates": {
          "lat": 6.834587899410164,
          "lon": 14.1415182
        },
        "name": "Angelo"
      },
      {
        "id": 2461916474,
        "place": "village",
        "coordinates": {
          "lat": 4.3057882995610335,
          "lon": 14.890965899999998
        },
        "name": "Sandji II"
      }
    ],
    "trip_type": "inter",
    "number_of_passengers": 13,
    "number_of_reservations": 2,
    "latest_reservation_date": "2024-06-26T22:07:22",
    "luggage_types": [
      "animals",
      "other",
      "normal"
    ],
    "standing": "classic"
  },
  {
    "trip_id": 56,
    "departure_date": "2024-08-08T21:16:19",
    "departure_time": "2024-06-27T15:13:35",
    "price": 7432,
    "vehicle": {
      "id": 88,
      "vehicle_type": "bus",
      "brand": "Trupe",
      "number_of_seats": 29,
      "photo_url": "https://theguardian.com/nam/nulla/integer/pede.xml"
    },
    "agency": {
      "agency_id": 31,
      "agency_name": "Fort Campbell/Hopkinsville",
      "phone_number": "+45 (843) 204-1655"
    },
    "station": {
      "station_id": 37,
      "station_name": "Apalapsili Airport",
      "point_id": 2467973472
    },
    "origin": {
      "id": 7138929112,
      "place": "village",
      "coordinates": {
        "lat": 12.198093299598757,
        "lon": 14.8523139
      },
      "name": "Androuman"
    },
    "destination": {
      "id": 1049849559,
      "place": "locality",
      "coordinates": {
        "lat": 9.422802999413818,
        "lon": 13.646322999999999
      },
      "name": "Mayo Wouro Bocki"
    },
    "stop_points": [],
    "trip_type": "inter",
    "number_of_passengers": 26,
    "number_of_reservations": 25,
    "latest_reservation_date": "2024-07-26T21:37:49",
    "luggage_types": [
      "electronics",
      "animals",
      "normal",
      "other"
    ],
    "standing": "vip"
  },
  {
    "trip_id": 57,
    "departure_date": "2025-05-09T19:18:05",
    "departure_time": "2024-06-27T00:41:38",
    "price": 8067,
    "vehicle": {
      "id": 93,
      "vehicle_type": "taxi",
      "brand": "Lazzy",
      "number_of_seats": 3,
      "photo_url": "https://mtv.com/in/lacus/curabitur/at/ipsum.jsp"
    },
    "agency": {
      "agency_id": 32,
      "agency_name": "Marsabit",
      "phone_number": "+33 (303) 894-2576"
    },
    "station": {
      "station_id": 49,
      "station_name": "Icy Bay Airport",
      "point_id": 3001896144
    },
    "origin": {
      "id": 7719727060,
      "place": "village",
      "coordinates": {
        "lat": 10.958835999495689,
        "lon": 15.091613999999998
      },
      "name": "Adavouloum"
    },