[
  {
    "id": 923991871,
    "place": "suburb",
    "coordinates": {
      "lat": 4.010509199586527,
      "lon": 9.699614000000002
    },
    "name": "Youpwe"
  },
  {
    "id": 923991897,
    "place": "suburb",
    "coordinates": {
      "lat": 4.008036399586746,
      "lon": 9.7079395
    },
    "name": "Bois des Singes"
  },
  {
    "id": 957643674,
    "place": "suburb",
    "coordinates": {
      "lat": 4.014768599586151,
      "lon": 9.707689999999998
    },
    "name": "Ancien Aéroport"
  },
  {
    "id": 3048201789,
    "place": "locality",
    "coordinates": {
      "lat": 4.006520899586879,
      "lon": 9.7016367
    },
    "name": "Club Nautique Marina 2000"
  },
  {
    "id": 10816304196,
    "place": "village",
    "coordinates": {
      "lat": 3.9694833995901724,
      "lon": 9.6895391
    },
    "name": "Nyanga Kombo"
  },
  {
    "id": 2467814189,
    "place": "village",
    "coordinates": {
      "lat": 3.9416870995926554,
      "lon": 9.646026399999998
    },
    "name": "Matanda Massadi"
  },
  {
    "id": 2460695255,
    "place": "village",
    "coordinates": {
      "lat": 3.919703499594625,
      "lon": 9.703812
    },
    "name": "Dongo I"
  },
  {
    "id": 2460695274,
    "place": "village",
    "coordinates": {
      "lat": 3.830910399602656,
      "lon": 9.6939971
    },
    "name": "Epassi"
  },
  {
    "id": 2460695467,
    "place": "village",
    "coordinates": {
      "lat": 3.834270899602351,
      "lon": 9.6565471
    },
    "name": "Number Two Creek"
  },
  {
    "id": 2460695466,
    "place": "village",
    "coordinates": {
      "lat": 3.85045169960088,
      "lon": 9.6466578
    },
    "name": "Number One Creek"
  },
  {
    "id": 2460695346,
    "place": "town",
    "coordinates": {
      "lat": 3.8612466995999015,
      "lon": 9.6235775
    },
    "name": "Manoka"
  },
  {
    "id": 2460695246,
    "place": "village",
    "coordinates": {
      "lat": 3.8676951995993165,
      "lon": 9.621917
    },
    "name": "Dahomey"
  },
  {
    "id": 2460695468,
    "place": "village",
    "coordinates": {
      "lat": 3.859084299600098,
      "lon": 9.6370212
    },
    "name": "Nyangadou"
  },
  {
    "id": 2467814443,
    "place": "village",
    "coordinates": {
      "lat": 3.8965892995967057,
      "lon": 9.4415361
    },
    "name": "Petit Toubé"
  },
  {
    "id": 208513665,
    "place": "locality",
    "coordinates": {
      "lat": 3.910726699595433,
      "lon": 9.471518399999999
    },
    "name": "Cap Cameroun"
  },
  {
    "id": 2467813934,
    "place": "village",
    "coordinates": {
      "lat": 3.9467628995921995,
      "lon": 9.446106499999999
    },
    "name": "Dengdé"
  },
  {
    "id": 2467813690,
    "place": "village",
    "coordinates": {
      "lat": 3.9768220995895187,
      "lon": 9.4540091
    },
    "name": "Akra Kombo"
  },
  {
    "id": 2467813795,
    "place": "village",
    "coordinates": {
      "lat": 3.989789099588364,
      "lon": 9.446565399999999
    },
    "name": "Bessoukoudou"
  },
  {
    "id": 3530862820,
    "place": "village",
    "coordinates": {
      "lat": 4.026452099585117,
      "lon": 9.4429006
    },
    "name": "Big Kombo"
  },
  {
    "id": 2467814444,
    "place": "village",
    "coordinates": {
      "lat": 3.990566899588295,
      "lon": 9.4731263
    },
    "name": "Poka I"
  },
  {
    "id": 2467814024,
    "place": "village",
    "coordinates": {
      "lat": 3.9760226995895884,
      "lon": 9.529620299999998
    },
    "name": "Kombo Moukoko"
  },
  {
    "id": 2467813906,
    "place": "village",
    "coordinates": {
      "lat": 4.023425799585385,
      "lon": 9.5403428
    },
    "name": "Bouma"
  },
  {
    "id": 2467814026,
    "place": "village",
    "coordinates": {
      "lat": 4.023340699585391,
      "lon": 9.552601599999997
    },
    "name": "Kombo"
  },
  {
    "id": 2467814271,
    "place": "village",
    "coordinates": {
      "lat": 4.027101499585059,
      "lon": 9.5313875
    },
    "name": "Moungangué"
  },
  {
    "id": 2467814489,
    "place": "village",
    "coordinates": {
      "lat": 4.017297699585927,
      "lon": 9.513315399999998
    },
    "name": "Wongué"
  },
  {
    "id": 3530862823,
    "place": "village",
    "coordinates": {
      "lat": 4.056121999582503,
      "lon": 9.5053473
    },
    "name": "Ngombawassé"
  },
  {
    "id": 3675593364,
    "place": "village",
    "coordinates": {
      "lat": 4.108363199577933,
      "lon": 9.5445375
    },
    "name": "Bonako"
  },
  {
    "id": 2467813869,
    "place": "village",
    "coordinates": {
      "lat": 4.1031231995783894,
      "lon": 9.5453543
    },
    "name": "Bonamoné"
  },
  {
    "id": 3675593370,
    "place": "village",
    "coordinates": {
      "lat": 4.101219799578555,
      "lon": 9.541102100000002
    },
    "name": "Bonasson"
  },
  {
    "id": 3675593365,
    "place": "village",
    "coordinates": {
      "lat": 4.104654899578256,
      "lon": 9.5401152
    },
    "name": "Bonamandja"
  },
  {
    "id": 3675593396,
    "place": "village",
    "coordinates": {
      "lat": 4.107348299578021,
      "lon": 9.540389099999999
    },
    "name": "Mungo"
  },
  {
    "id": 3530862821,
    "place": "village",
    "coordinates": {
      "lat": 4.101798699578504,
      "lon": 9.4865688
    },
    "name": "Bokulang"
  },
  {
    "id": 3530862822,
    "place": "village",
    "coordinates": {
      "lat": 4.0506815995829815,
      "lon": 9.486418099999998
    },
    "name": "Kombo Pongo"
  },
  {
    "id": 3530862824,
    "place": "village",
    "coordinates": {
      "lat": 4.059372299582217,
      "lon": 9.482069599999999
    },
    "name": "Small Mokota"
  },
  {
    "id": 2467814254,
    "place": "village",
    "coordinates": {
      "lat": 4.069813799581302,
      "lon": 9.4722018
    },
    "name": "Mokota"
  },
  {
    "id": 2467814143,
    "place": "village",
    "coordinates": {
      "lat": 4.078412099580548,
      "lon": 9.4573374
    },
    "name": "Manga Samba"
  },
  {
    "id": 2467814146,
    "place": "village",
    "coordinates": {
      "lat": 4.1108344995777175,
      "lon": 9.440335599999997
    },
    "name": "Manga"
  },
  {
    "id": 2467814199,
    "place": "village",
    "coordinates": {
      "lat": 4.1123876995775825,
      "lon": 9.4238623
    },
    "name": "Matute"
  },
  {
    "id": 2467814245,
    "place": "village",
    "coordinates": {
      "lat": 4.121329299576805,
      "lon": 9.445525
    },
    "name": "Missellele"
  },
  {
    "id": 2467814250,
    "place": "village",
    "coordinates": {
      "lat": 4.156677799573741,
      "lon": 9.4715007
    },
    "name": "Moko"
  },
  {
    "id": 2467814261,
    "place": "village",
    "coordinates": {
      "lat": 4.185182799571285,
      "lon": 9.4725155
    },
    "name": "Mondoni"
  },
  {
    "id": 2467814054,
    "place": "village",
    "coordinates": {
      "lat": 4.185614099571247,
      "lon": 9.447538999999999
    },
    "name": "Likoki"
  },
  {
    "id": 3675593362,
    "place": "village",
    "coordinates": {
      "lat": 4.236220899566919,
      "lon": 9.430431899999999
    },
    "name": "Bonadoumbé"
  },
  {
    "id": 2467814149,
    "place": "village",
    "coordinates": {
      "lat": 4.245331699566146,
      "lon": 9.433567999999998
    },
    "name": "Mangamba"
  },
  {
    "id": 3675593380,
    "place": "village",
    "coordinates": {
      "lat": 4.207870299569339,
      "lon": 9.4748458
    },
    "name": "Diongo"
  },
  {
    "id": 2467814111,
    "place": "village",
    "coordinates": {
      "lat": 4.202681299569785,
      "lon": 9.4847462
    },
    "name": "Malendé"
  },
  {
    "id": 3675593383,
    "place": "village",
    "coordinates": {
      "lat": 4.194014499570526,
      "lon": 9.5080719
    },
    "name": "Djopongo"
  },
  {
    "id": 2467814219,
    "place": "village",
    "coordinates": {
      "lat": 4.21616269956863,
      "lon": 9.5223691
    },
    "name": "Mbondjo II"
  },
  {
    "id": 2467813801,
    "place": "village",
    "coordinates": {
      "lat": 4.241701099566454,
      "lon": 9.5379391
    },
    "name": "Beyang Mbondjo"
  },
  {
    "id": 3675593384,
    "place": "village",
    "coordinates": {
      "lat": 4.231915499567287,
      "lon": 9.555922099999998
    },
    "name": "Djoungue"
  },
  {
    "id": 3675593359,
    "place": "village",
    "coordinates": {
      "lat": 4.226688799567732,
      "lon": 9.5493587
    },
    "name": "Bikouma"
  },
  {
    "id": 3675593418,
    "place": "village",
    "coordinates": {
      "lat": 4.2209683995682195,
      "lon": 9.5424455
    },
    "name": "bayong"
  },
  {
    "id": 2467814218,
    "place": "village",
    "coordinates": {
      "lat": 4.226558599567744,
      "lon": 9.5421861
    },
    "name": "Mbondjo I"
  },
  {
    "id": 3675685547,
    "place": "village",
    "coordinates": {
      "lat": 4.161633299573314,
      "lon": 9.5634372
    },
    "name": "Bambou"
  },
  {
    "id": 3675593363,
    "place": "village",
    "coordinates": {
      "lat": 4.160030499573453,
      "lon": 9.537874099999998
    },
    "name": "Bonagalo"
  },
  {
    "id": 2467814244,
    "place": "village",
    "coordinates": {
      "lat": 4.1864234995711795,
      "lon": 9.5170848
    },
    "name": "Misaka"
  },
  {
    "id": 3675593358,
    "place": "village",
    "coordinates": {
      "lat": 4.170573599572544,
      "lon": 9.522266500000002
    },
    "name": "Betayi"
  },
  {
    "id": 3675593371,
    "place": "village",
    "coordinates": {
      "lat": 4.161658899573312,
      "lon": 9.5297659
    },
    "name": "Bonebanda"
  },
  {
    "id": 3675593417,
    "place": "village",
    "coordinates": {
      "lat": 4.153185599574043,
      "lon": 9.521048899999998
    },
    "name": "Yundi"
  },
  {
    "id": 619629012,
    "place": "village",
    "coordinates": {
      "lat": 4.144245799574817,
      "lon": 9.506297199999999
    },
    "name": "Bonakoh"
  },
  {
    "id": 2467814246,
    "place": "village",
    "coordinates": {
      "lat": 4.1347023995756444,
      "lon": 9.4957424
    },
    "name": "Modeka"
  },
  {
    "id": 2467814034,
    "place": "village",
    "coordinates": {
      "lat": 4.122133699576735,
      "lon": 9.5224411
    },
    "name": "Kongwe"
  },
  {
    "id": 3675593416,
    "place": "village",
    "coordinates": {
      "lat": 4.149348899574375,
      "lon": 9.5366321
    },
    "name": "Yundi"
  },
  {
    "id": 3675593394,
    "place": "village",
    "coordinates": {
      "lat": 4.146382399574631,
      "lon": 9.5511514
    },
    "name": "Moulanga"
  },
  {
    "id": 3675593415,
    "place": "village",
    "coordinates": {
      "lat": 4.152554299574097,
      "lon": 9.557721599999999
    },
    "name": "Yato"
  },
  {
    "id": 3037843863,
    "place": "village",
    "coordinates": {
      "lat": 4.125037499576482,
      "lon": 9.588971
    },
    "name": "Bakoko"
  },
  {
    "id": 3675593355,
    "place": "village",
    "coordinates": {
      "lat": 4.134559899575656,
      "lon": 9.5927088
    },
    "name": "Ba Mbengué 1"
  },
  {
    "id": 3675593360,
    "place": "village",
    "coordinates": {
      "lat": 4.13936109957524,
      "lon": 9.5946265
    },
    "name": "Bomono"
  },
  {
    "id": 3675593390,
    "place": "village",
    "coordinates": {
      "lat": 4.1366677995754735,
      "lon": 9.6030406
    },
    "name": "Maka"
  },
  {
    "id": 3675593356,
    "place": "village",
    "coordinates": {
      "lat": 4.149899999574328,
      "lon": 9.5892258
    },
    "name": "Ba Mbengué 2"
  },
  {
    "id": 3675593357,
    "place": "village",
    "coordinates": {
      "lat": 4.146894499574588,
      "lon": 9.568601299999997
    },
    "name": "Bassa"
  },
  {
    "id": 2467814161,
    "place": "village",
    "coordinates": {
      "lat": 4.16445269957307,
      "lon": 9.567119
    },
    "name": "Manoka"
  },
  {
    "id": 2467813998,
    "place": "village",
    "coordinates": {
      "lat": 4.1682355995727445,
      "lon": 9.5994024
    },
    "name": "Bomono Gare"
  },
  {
    "id": 3675593379,
    "place": "village",
    "coordinates": {
      "lat": 4.1595020995734995,
      "lon": 9.5852339
    },
    "name": "Békouma"
  },
  {
    "id": 3675593402,
    "place": "village",
    "coordinates": {
      "lat": 4.163309799573169,
      "lon": 9.610093399999998
    },
    "name": "Solé"
  },
  {
    "id": 2467813843,
    "place": "village",
    "coordinates": {
      "lat": 4.155573599573838,
      "lon": 9.6130733
    },
    "name": "Bomono"
  },
  {
    "id": 3675593378,
    "place": "village",
    "coordinates": {
      "lat": 4.161385499573335,
      "lon": 9.618275699999998
    },
    "name": "Bwassalo"
  },
  {
    "id": 2467813693,
    "place": "village",
    "coordinates": {
      "lat": 4.15623119957378,
      "lon": 9.6226058
    },
    "name": "Ba Djérou"
  },
  {
    "id": 3675593361,
    "place": "village",
    "coordinates": {
      "lat": 4.148285599574468,
      "lon": 9.628776599999998
    },
    "name": "Bonadindé"
  },
  {
    "id": 2467813944,
    "place": "village",
    "coordinates": {
      "lat": 4.142656499574954,
      "lon": 9.6210464
    },
    "name": "Djouki"
  },
  {
    "id": 3675593368,
    "place": "village",
    "coordinates": {
      "lat": 4.152570499574096,
      "lon": 9.666984
    },
    "name": "Bonangando"
  },
  {
    "id": 3675593367,
    "place": "village",
    "coordinates": {
      "lat": 4.152743599574081,
      "lon": 9.674024499999998
    },
    "name": "Bonambwasse"
  },
  {
    "id": 3675593403,
    "place": "village",
    "coordinates": {
      "lat": 4.148941099574412,
      "lon": 9.6808917
    },
    "name": "Songué"
  },
  {
    "id": 3675593401,
    "place": "village",
    "coordinates": {
      "lat": 4.167750199572786,
      "lon": 9.683316399999999
    },
    "name": "Nkongbong"
  },
  {
    "id": 2467814498,
    "place": "village",
    "coordinates": {
      "lat": 4.171482999572465,
      "lon": 9.693754200000003
    },
    "name": "Yandoungou"
  },
  {
    "id": 3675593395,
    "place": "village",
    "coordinates": {
      "lat": 4.162812199573213,
      "lon": 9.693503299999998
    },
    "name": "Mounyoungou"
  },
  {
    "id": 2467814205,
    "place": "village",
    "coordinates": {
      "lat": 4.165796299572954,
      "lon": 9.70209
    },
    "name": "Mbangué I"
  },
  {
    "id": 3675593409,
    "place": "village",
    "coordinates": {
      "lat": 4.181423299571609,
      "lon": 9.7049998
    },
    "name": "Yamidjang"
  },
  {
    "id": 3675593406,
    "place": "village",
    "coordinates": {
      "lat": 4.188075499571038,
      "lon": 9.7029506
    },
    "name": "Yabona"
  },
  {
    "id": 2467814204,
    "place": "village",
    "coordinates": {
      "lat": 4.184362199571356,
      "lon": 9.704155199999999
    },
    "name": "Mbangue II"
  },
  {
    "id": 3675593410,
    "place": "village",
    "coordinates": {
      "lat": 4.178402199571869,
      "lon": 9.6821249
    },
    "name": "Yamikoki"
  },
  {
    "id": 3037843855,
    "place": "village",
    "coordinates": {
      "lat": 4.185365999571269,
      "lon": 9.6835651
    },
    "name": "Bali"
  },
  {
    "id": 3675593375,
    "place": "village",
    "coordinates": {
      "lat": 4.178486099571862,
      "lon": 9.6640137
    },
    "name": "Bossédi 1"
  },
  {
    "id": 3037843870,
    "place": "village",
    "coordinates": {
      "lat": 4.178320899571876,
      "lon": 9.671108
    },
    "name": "Bonamateke"
  },
  {
    "id": 2467814497,
    "place": "village",
    "coordinates": {
      "lat": 4.178927799571824,
      "lon": 9.675166399999998
    },
    "name": "Yandom"
  },
  {
    "id": 3675593413,
    "place": "village",
    "coordinates": {
      "lat": 4.169068499572673,
      "lon": 9.6740864
    },
    "name": "Yansang"
  },
  {
    "id": 3675593393,
    "place": "village",
    "coordinates": {
      "lat": 4.156448399573763,
      "lon": 9.6615506
    },
    "name": "Moudimapondji"
  },
  {
    "id": 3675593385,
    "place": "village",
    "coordinates": {
      "lat": 4.170766899572525,
      "lon": 9.6609025
    },
    "name": "Ewoulo Bonambépé"
  },
  {
    "id": 3675593397,
    "place": "village",
    "coordinates": {
      "lat": 4.168728499572703,
      "lon": 9.6519797
    },
    "name": "Ngodi Bossédi"
  },
  {
    "id": 2467813813,
    "place": "village",
    "coordinates": {
      "lat": 4.156472799573761,
      "lon": 9.6414141
    },
    "name": "Biendendé"
  },
  {
    "id": 3675593398,
    "place": "village",
    "coordinates": {
      "lat": 4.166789499572869,
      "lon": 9.641561399999999
    },
    "name": "Ngodi Bwanjoumba"
  },
  {
    "id": 3675593377,
    "place": "village",
    "coordinates": {
      "lat": 4.177379099571957,
      "lon": 9.6429572
    },
    "name": "Bwanjoumba"
  },
  {
    "id": 3675593392,
    "place": "village",
    "coordinates": {
      "lat": 4.175290999572137,
      "lon": 9.6496368
    },
    "name": "Modibé"
  },
  {
    "id": 3037843875,
    "place": "town",
    "coordinates": {
      "lat": 4.178503999571861,
      "lon": 9.65579
    },
    "name": "Dibombari"
  },
  {
    "id": 3675593382,
    "place": "village",
    "coordinates": {
      "lat": 4.198033499570183,
      "lon": 9.651003599999997
    },
    "name": "Djobwélé"
  },
  {
    "id": 3675593389,
    "place": "village",
    "coordinates": {
      "lat": 4.210190999569141,
      "lon": 9.657252
    },
    "name": "Mabanga"
  },
  {
    "id": 3675593373,
    "place": "village",
    "coordinates": {
      "lat": 4.2033098995697316,
      "lon": 9.677007599999998
    },
    "name": "Bonébo"
  },
  {
    "id": 2467814072,
    "place": "village",
    "coordinates": {
      "lat": 4.207242999569394,
      "lon": 9.665349
    },
    "name": "Mabanga"
  },
  {
    "id": 3675593376,
    "place": "village",
    "coordinates": {
      "lat": 4.199509699570057,
      "lon": 9.670347099999999
    },
    "name": "Bossédi 2"
  },
  {
    "id": 2467813847,
    "place": "village",
    "coordinates": {
      "lat": 4.197285799570246,
      "lon": 9.6790772
    },
    "name": "Bonabweng"
  },
  {
    "id": 3675593408,
    "place": "village",
    "coordinates": {
      "lat": 4.197412499570235,
      "lon": 9.6969235
    },
    "name": "Yambé"
  },
  {
    "id": 3675593404,
    "place": "village",
    "coordinates": {
      "lat": 4.205787699569518,
      "lon": 9.70504
    },
    "name": "Touwé"
  },
  {
    "id": 3675593366,
    "place": "village",
    "coordinates": {
      "lat": 4.205373899569553,
      "lon": 9.6963606
    },
    "name": "Bonambongué"
  },
  {
    "id": 2467814371,
    "place": "village",
    "coordinates": {
      "lat": 4.26258169956468,
      "lon": 9.689206500000001
    },
    "name": "Ndongo"
  },
  {
    "id": 2467814000,
    "place": "village",
    "coordinates": {
      "lat": 4.252356199565548,
      "lon": 9.6667634
    },
    "name": "Grand Makemba"
  },
  {
    "id": 2467813876,
    "place": "village",
    "coordinates": {
      "lat": 4.2526533995655225,
      "lon": 9.634683
    },
    "name": "Bonanko"
  },
  {
    "id": 8348756661,
    "place": "town",
    "coordinates": {
      "lat": 4.231763099567301,
      "lon": 9.6132516
    },
    "name": "Souza"
  },
  {
    "id": 2467814472,
    "place": "village",
    "coordinates": {
      "lat": 4.232205799567262,
      "lon": 9.6164225
    },
    "name": "Souza Gare"
  },
  {
    "id": 3675593387,
    "place": "village",
    "coordinates": {
      "lat": 4.231318899567337,
      "lon": 9.6267066
    },
    "name": "Kolo Souza"
  },
  {
    "id": 2467814001,
    "place": "village",
    "coordinates": {
      "lat": 4.23340719956716,
      "lon": 9.6390019
    },
    "name": "Grand Souza"
  },
  {
    "id": 3675593388,
    "place": "village",
    "coordinates": {
      "lat": 4.2253533995678465,
      "lon": 9.6323893
    },
    "name": "Kombiang Souza"
  },
  {
    "id": 2467814404,
    "place": "village",
    "coordinates": {
      "lat": 4.202799699569773,
      "lon": 9.6064371
    },
    "name": "Nkendé"
  },
  {
    "id": 3037843907,
    "place": "village",
    "coordinates": {
      "lat": 4.213045199568896,
      "lon": 9.6096844
    },
    "name": "Nkapa"
  },
  {
    "id": 3675593400,
    "place": "village",
    "coordinates": {
      "lat": 4.223364899568016,
      "lon": 9.620674999999999
    },
    "name": "Nkompen"
  },
  {
    "id": 3825487396,
    "place": "village",
    "coordinates": {
      "lat": 4.221877999568142,
      "lon": 9.608926
    },
    "name": "Kasalafam"
  },
  {
    "id": 3675593391,
    "place": "village",
    "coordinates": {
      "lat": 4.245785099566107,
      "lon": 9.579001799999999
    },
    "name": "Mengoumba"
  },
  {
    "id": 2467813787,
    "place": "village",
    "coordinates": {
      "lat": 4.257530799565108,
      "lon": 9.6011088
    },
    "name": "Bekouma"
  },
  {
    "id": 2467814119,
    "place": "village",
    "coordinates": {
      "lat": 4.312198899560496,
      "lon": 9.598278599999999
    },
    "name": "Maléké"
  },
  {
    "id": 2467813698,
    "place": "village",
    "coordinates": {
      "lat": 4.3001151995615094,
      "lon": 9.6765328
    },
    "name": "Badou"
  },
  {
    "id": 2467813853,
    "place": "village",
    "coordinates": {
      "lat": 4.2682602995642,
      "lon": 9.6695365
    },
    "name": "Bonakou"
  },
  {
    "id": 2467814241,
    "place": "village",
    "coordinates": {
      "lat": 4.2941353995620135,
      "lon": 9.7002763
    },
    "name": "Miang"
  },
  {
    "id": 2467813763,
    "place": "village",
    "coordinates": {
      "lat": 4.294441499561988,
      "lon": 9.677402399999998
    },
    "name": "Bandjiou"
  },
  {
    "id": 2467814033,
    "place": "town",
    "coordinates": {
      "lat": 4.352108599557157,
      "lon": 9.582534799999998
    },
    "name": "Kompina"
  },
  {
    "id": 2467813692,
    "place": "village",
    "coordinates": {
      "lat": 4.39412799955367,
      "lon": 9.5743114
    },
    "name": "Alobzok"
  },
  {
    "id": 2467814031,
    "place": "village",
    "coordinates": {
      "lat": 4.405584899552724,
      "lon": 9.567439199999999
    },
    "name": "Kombé"
  },
  {
    "id": 2467814302,
    "place": "village",
    "coordinates": {
      "lat": 4.354017399556997,
      "lon": 9.5071918
    },
    "name": "Nachtigal Bekeke"
  },
  {
    "id": 2467814041,
    "place": "village",
    "coordinates": {
      "lat": 4.36770389955586,
      "lon": 9.539525799999998
    },
    "name": "Koto II"
  },
  {
    "id": 2467814042,
    "place": "village",
    "coordinates": {
      "lat": 4.334160299558655,
      "lon": 9.4923192
    },
    "name": "Koto III"
  },
  {
    "id": 2467814198,
    "place": "village",
    "coordinates": {
      "lat": 4.2837587995628885,
      "lon": 9.4554944
    },
    "name": "Matouké"
  },
  {
    "id": 2467814437,
    "place": "village",
    "coordinates": {
      "lat": 4.269684599564079,
      "lon": 9.446515699999999
    },
    "name": "Penda Mboko"
  },
  {
    "id": 2467814504,
    "place": "village",
    "coordinates": {
      "lat": 4.311169499560581,
      "lon": 9.434238099999998
    },
    "name": "Yoke"
  },
  {
    "id": 2467814102,
    "place": "village",
    "coordinates": {
      "lat": 4.345391399557717,
      "lon": 9.4320091
    },
    "name": "Malende"
  },
  {
    "id": 2467813766,
    "place": "village",
    "coordinates": {
      "lat": 4.399894499553194,
      "lon": 9.4455149
    },
    "name": "Banga Bekele"
  },
  {
    "id": 2467813839,
    "place": "village",
    "coordinates": {
      "lat": 4.442430099549697,
      "lon": 9.4674039
    },
    "name": "Bombe"
  },
  {
    "id": 2467814276,
    "place": "village",
    "coordinates": {
      "lat": 4.434256499550366,
      "lon": 9.565567399999999
    },
    "name": "Mouyouka II"
  },
  {
    "id": 2467814318,
    "place": "village",
    "coordinates": {
      "lat": 4.476539799546915,
      "lon": 9.548473199999998
    },
    "name": "Ndoh I"
  },
  {
    "id": 2467814317,
    "place": "village",
    "coordinates": {
      "lat": 4.5154628995437625,
      "lon": 9.5058346
    },
    "name": "Ndoh Beach"
  },
  {
    "id": 2467814319,
    "place": "village",
    "coordinates": {
      "lat": 4.492169599545646,
      "lon": 9.5365512
    },
    "name": "Ndoh II"
  },
  {
    "id": 1595553991,
    "place": "town",
    "coordinates": {
      "lat": 4.499077999545087,
      "lon": 9.565736599999997
    },
    "name": "Mbanga"
  },
  {
    "id": 2467814414,
    "place": "village",
    "coordinates": {
      "lat": 4.55272629954077,
      "lon": 9.5508641
    },
    "name": "Nkwangsi II"
  },
  {
    "id": 2467814292,
    "place": "village",
    "coordinates": {
      "lat": 4.554632999540618,
      "lon": 9.521046999999998
    },
    "name": "Mundame"
  },
  {
    "id": 2467813957,
    "place": "village",
    "coordinates": {
      "lat": 4.537569099541985,
      "lon": 9.462164799999998
    },
    "name": "Ediki"
  },
  {
    "id": 2467814203,
    "place": "village",
    "coordinates": {
      "lat": 4.502178899544835,
      "lon": 9.461481599999999
    },
    "name": "Mbalangi"
  },
  {
    "id": 2467814076,
    "place": "village",
    "coordinates": {
      "lat": 4.569559199539426,
      "lon": 9.4789053
    },
    "name": "Mabonji"
  },
  {
    "id": 2467813774,
    "place": "village",
    "coordinates": {
      "lat": 4.606521099536491,
      "lon": 9.4574788
    },
    "name": "Barombi Kang"
  },
  {
    "id": 2467814107,
    "place": "village",
    "coordinates": {
      "lat": 4.599139899537074,
      "lon": 9.490556699999999
    },
    "name": "Malende"
  },
  {
    "id": 2467813932,
    "place": "village",
    "coordinates": {
      "lat": 4.617694199535607,
      "lon": 9.477360199999998
    },
    "name": "Dchang"
  },
  {
    "id": 929334616,
    "place": "city",
    "coordinates": {
      "lat": 4.637836799534022,
      "lon": 9.4409446
    },
    "name": "Kumba"
  },
  {
    "id": 2467813743,
    "place": "village",
    "coordinates": {
      "lat": 4.642920999533623,
      "lon": 9.4927239
    },
    "name": "Bakossi"
  },
  {
    "id": 2467813745,
    "place": "village",
    "coordinates": {
      "lat": 4.661476799532171,
      "lon": 9.511869500000001
    },
    "name": "Bakossi"
  },
  {
    "id": 2467814288,
    "place": "village",
    "coordinates": {
      "lat": 4.578581499538707,
      "lon": 9.508699699999998
    },
    "name": "Mukonje"
  },
  {
    "id": 3037843896,
    "place": "town",
    "coordinates": {
      "lat": 4.571740599539252,
      "lon": 9.5870089
    },
    "name": "Mombo"
  },
  {
    "id": 2467814260,
    "place": "village",
    "coordinates": {
      "lat": 4.571478499539273,
      "lon": 9.5926394
    },
    "name": "Mombo Gare"
  },
  {
    "id": 2467813946,
    "place": "village",
    "coordinates": {
      "lat": 4.577804799538769,
      "lon": 9.619794299999999
    },
    "name": "Djoungo"
  },
  {
    "id": 2467813902,
    "place": "village",
    "coordinates": {
      "lat": 4.617298599535639,
      "lon": 9.589777000000002
    },
    "name": "Boubou"
  },
  {
    "id": 2467813916,
    "place": "village",
    "coordinates": {
      "lat": 4.629125999534707,
      "lon": 9.5794559
    },
    "name": "Buba Waterfall"
  },
  {
    "id": 2467813915,
    "place": "village",
    "coordinates": {
      "lat": 4.634066299534318,
      "lon": 9.611650199999998
    },
    "name": "Buba Mile 6"
  },
  {
    "id": 2467813914,
    "place": "village",
    "coordinates": {
      "lat": 4.635494099534206,
      "lon": 9.630293199999999
    },
    "name": "Buba I"
  },
  {
    "id": 4461955130,
    "place": "village",
    "coordinates": {
      "lat": 4.6831520995304805,
      "lon": 9.7054868
    },
    "name": "Loum Chantier Pk 99"
  },
  {
    "id": 249863738,
    "place": "town",
    "coordinates": {
      "lat": 4.640798999533789,
      "lon": 9.682914
    },
    "name": "Penja"
  },
  {
    "id": 1595554030,
    "place": "town",
    "coordinates": {
      "lat": 4.5867239995380595,
      "lon": 9.652932
    },
    "name": "Njombé"
  },
  {
    "id": 4495269702,
    "place": "locality",
    "coordinates": {
      "lat": 4.57012889953938,
      "lon": 9.6425332
    },
    "name": "Pont Boko"
  },
  {
    "id": 2467814216,
    "place": "village",
    "coordinates": {
      "lat": 4.559881099540197,
      "lon": 9.6482549
    },
    "name": "Mbome Ngwandang"
  },
  {
    "id": 2467813870,
    "place": "village",
    "coordinates": {
      "lat": 4.592952599537566,
      "lon": 9.678378099999998
    },
    "name": "Bonandam"
  },
  {
    "id": 2467813945,
    "place": "village",
    "coordinates": {
      "lat": 4.5402167995417715,
      "lon": 9.6059804
    },
    "name": "Djoungo"
  },
  {
    "id": 2467814412,
    "place": "village",
    "coordinates": {
      "lat": 4.532616099542383,
      "lon": 9.5705358
    },
    "name": "Nkwangsi II"
  },
  {
    "id": 2467814411,
    "place": "village",
    "coordinates": {
      "lat": 4.519292999543454,
      "lon": 9.593146999999998
    },
    "name": "Nkwangsi I"
  },
  {
    "id": 2467814275,
    "place": "village",
    "coordinates": {
      "lat": 4.460125299548251,
      "lon": 9.5687398
    },
    "name": "Mouyouka I"
  },
  {
    "id": 3037843899,
    "place": "village",
    "coordinates": {
      "lat": 4.440534999549852,
      "lon": 9.7829127
    },
    "name": "Mpobo"
  },
  {
    "id": 3037843860,
    "place": "village",
    "coordinates": {
      "lat": 4.436198999550207,
      "lon": 9.7824802
    },
    "name": "Bassen"
  },
  {
    "id": 3037843859,
    "place": "village",
    "coordinates": {
      "lat": 4.412395999552163,
      "lon": 9.7775341
    },
    "name": "Bassen"
  },
  {
    "id": 2467814431,
    "place": "village",
    "coordinates": {
      "lat": 4.603596599536722,
      "lon": 9.768920099999999
    },
    "name": "Nyanga"
  },
  {
    "id": 2467813890,
    "place": "village",
    "coordinates": {
      "lat": 4.651993599532912,
      "lon": 9.739626499999998
    },
    "name": "Bonéko"
  },
  {
    "id": 4461955129,
    "place": "village",
    "coordinates": {
      "lat": 4.676390699531007,
      "lon": 9.720114999999998
    },
    "name": "Loum Chantier Gare"
  },
  {
    "id": 2467814068,
    "place": "village",
    "coordinates": {
      "lat": 4.698598099529282,
      "lon": 9.716268499999998
    },
    "name": "Loum-Chantier"
  },
  {
    "id": 2467813937,
    "place": "village",
    "coordinates": {
      "lat": 4.679806899530742,
      "lon": 9.8026308
    },
    "name": "Dibombé"
  },
  {
    "id": 3037843876,
    "place": "village",
    "coordinates": {
      "lat": 4.685900999530266,
      "lon": 9.807147
    },
    "name": "Dibombe 1"
  },
  {
    "id": 2467814467,
    "place": "village",
    "coordinates": {
      "lat": 4.605973499536534,
      "lon": 9.806568999999998
    },
    "name": "Solé"
  },
  {
    "id": 2467813827,
    "place": "village",
    "coordinates": {
      "lat": 4.567575499539583,
      "lon": 9.879105499999998
    },
    "name": "Bobok"
  },
  {
    "id": 2467813943,
    "place": "village",
    "coordinates": {
      "lat": 4.5748276995390045,
      "lon": 9.863390399999998
    },
    "name": "Dimbong"
  },
  {
    "id": 2467814053,
    "place": "village",
    "coordinates": {
      "lat": 4.645884199533391,
      "lon": 9.8832359
    },
    "name": "Lamba"
  },
  {
    "id": 2467814354,
    "place": "village",
    "coordinates": {
      "lat": 4.65420029953274,
      "lon": 9.8968877
    },
    "name": "Ndoknak"
  },
  {
    "id": 2467814073,
    "place": "village",
    "coordinates": {
      "lat": 4.693266999529695,
      "lon": 9.9753451
    },
    "name": "Mabom"
  },
  {
    "id": 2467814338,
    "place": "village",
    "coordinates": {
      "lat": 4.587840499537972,
      "lon": 9.967701899999998
    },
    "name": "Ndokbong"
  },
  {
    "id": 2467813773,
    "place": "village",
    "coordinates": {
      "lat": 4.578301099538729,
      "lon": 9.9645212
    },
    "name": "Banya II\r\r"
  },
  {
    "id": 2467813931,
    "place": "village",
    "coordinates": {
      "lat": 4.5339136995422775,
      "lon": 9.9938111
    },
    "name": "Dchang"
  },
  {
    "id": 2467813882,
    "place": "village",
    "coordinates": {
      "lat": 4.503616799544718,
      "lon": 9.9776339
    },
    "name": "Boneloko"
  },
  {
    "id": 2467814337,
    "place": "village",
    "coordinates": {
      "lat": 4.511863499544053,
      "lon": 9.9519543
    },
    "name": "Ndokbong"
  },
  {
    "id": 2467814345,
    "place": "village",
    "coordinates": {
      "lat": 4.527972699542755,
      "lon": 9.937727499999998
    },
    "name": "Ndokiamen"
  },
  {
    "id": 2467814361,
    "place": "village",
    "coordinates": {
      "lat": 4.547470199541191,
      "lon": 9.9423056
    },
    "name": "Ndokpo"
  },
  {
    "id": 2467814360,
    "place": "village",
    "coordinates": {
      "lat": 4.541247099541689,
      "lon": 9.9033703
    },
    "name": "Ndokpenda"
  },
  {
    "id": 2467814407,
    "place": "village",
    "coordinates": {
      "lat": 4.542921399541556,
      "lon": 9.879592699999998
    },
    "name": "Nkokem"
  },
  {
    "id": 3037843887,
    "place": "village",
    "coordinates": {
      "lat": 4.420277999551515,
      "lon": 9.931564099999997
    },
    "name": "Madimba"
  },
  {
    "id": 2467813851,
    "place": "village",
    "coordinates": {
      "lat": 4.422822199551304,
      "lon": 9.928908300000002
    },
    "name": "Bonakata"
  },
  {
    "id": 2467813857,
    "place": "village",
    "coordinates": {
      "lat": 4.4364541995501865,
      "lon": 9.945907699999998
    },
    "name": "Bonalembé"
  },
  {
    "id": 2467813846,
    "place": "village",
    "coordinates": {
      "lat": 4.47030999954742,
      "lon": 9.9700016
    },
    "name": "Bonabeke"
  },
  {
    "id": 2309876224,
    "place": "city",
    "coordinates": {
      "lat": 4.460431999548226,
      "lon": 9.970905799999999
    },
    "name": "Yabassi"
  },
  {
    "id": 3037843903,
    "place": "village",
    "coordinates": {
      "lat": 4.445172999549473,
      "lon": 9.982626799999998
    },
    "name": "Ndogbele"
  },
  {
    "id": 7659504905,
    "place": "village",
    "coordinates": {
      "lat": 4.424530599551164,
      "lon": 9.9898886
    },
    "name": "Ndokhai"
  },
  {
    "id": 2467813874,
    "place": "village",
    "coordinates": {
      "lat": 4.351165899557235,
      "lon": 9.862380999999997
    },
    "name": "Bonandolo"
  },
  {
    "id": 2467813936,
    "place": "village",
    "coordinates": {
      "lat": 4.36300419955625,
      "lon": 9.863099799999999
    },
    "name": "Dibombé"
  },
  {
    "id": 2467813873,
    "place": "village",
    "coordinates": {
      "lat": 4.407630399552556,
      "lon": 9.895078899999998
    },
    "name": "Bonandjeng"
  },
  {
    "id": 3037843866,
    "place": "village",
    "coordinates": {
      "lat": 4.387098999554251,
      "lon": 9.8717378
    },
    "name": "Bidiman"
  },
  {
    "id": 2467813877,
    "place": "village",
    "coordinates": {
      "lat": 4.3955577995535515,
      "lon": 9.878176799999999
    },
    "name": "Bonanyamsi"
  },
  {
    "id": 2467813922,
    "place": "village",
    "coordinates": {
      "lat": 4.401908699553026,
      "lon": 9.872613699999999
    },
    "name": "Bwamba"
  },
  {
    "id": 2467813865,
    "place": "village",
    "coordinates": {
      "lat": 4.342102499557991,
      "lon": 9.851070099999998
    },
    "name": "Bonamakita"
  },
  {
    "id": 2467814300,
    "place": "village",
    "coordinates": {
      "lat": 4.3827096995546135,
      "lon": 9.721079899999998
    },
    "name": "Mwanyambé"
  },
  {
    "id": 2467813761,
    "place": "village",
    "coordinates": {
      "lat": 4.356203699556816,
      "lon": 9.744933999999999
    },
    "name": "Bamwèn"
  },
  {
    "id": 250154511,
    "place": "village",
    "coordinates": {
      "lat": 4.339776699558185,
      "lon": 9.7371294
    },
    "name": "Bonaléa"
  },
  {
    "id": 2467814215,
    "place": "village",
    "coordinates": {
      "lat": 4.355763399556851,
      "lon": 9.737617199999999
    },
    "name": "Mbomboo"
  },
  {
    "id": 3037843869,
    "place": "village",
    "coordinates": {
      "lat": 4.3547741995569345,
      "lon": 9.7386732
    },
    "name": "Bonalea"
  },
  {
    "id": 2467813871,
    "place": "village",
    "coordinates": {
      "lat": 4.34822399955748,
      "lon": 9.741578299999999
    },
    "name": "Bonandika"
  },
  {
    "id": 3037843890,
    "place": "village",
    "coordinates": {
      "lat": 4.328528999559126,
      "lon": 9.733723899999998
    },
    "name": "Mandouka"
  },
  {
    "id": 2467813867,
    "place": "village",
    "coordinates": {
      "lat": 4.315983299560177,
      "lon": 9.7282463
    },
    "name": "Bonamboulé"
  },
  {
    "id": 3037843891,
    "place": "village",
    "coordinates": {
      "lat": 4.311057999560591,
      "lon": 9.7277512
    },
    "name": "Mangamba"
  },
  {
    "id": 2467813854,
    "place": "village",
    "coordinates": {
      "lat": 4.310055799560674,
      "lon": 9.730198899999998
    },
    "name": "Bonakwassi"
  },
  {
    "id": 2467813883,
    "place": "village",
    "coordinates": {
      "lat": 4.314952499560264,
      "lon": 9.7362913
    },
    "name": "Boneyan"
  },
  {
    "id": 2467813989,
    "place": "village",
    "coordinates": {
      "lat": 4.29476669956196,
      "lon": 9.7183409
    },
    "name": "Fiko"
  },
  {
    "id": 3037843865,
    "place": "village",
    "coordinates": {
      "lat": 4.2659858995643924,
      "lon": 9.7420079
    },
    "name": "Bessoungkang"
  },
  {
    "id": 7560870036,
    "place": "village",
    "coordinates": {
      "lat": 4.281610799563071,
      "lon": 9.7836149
    },
    "name": "Siga Bonjo"
  },
  {
    "id": 7560870037,
    "place": "village",
    "coordinates": {
      "lat": 4.266781999564325,
      "lon": 9.8010814
    },
    "name": "Bona'Anja - Siga Bonjo"
  },
  {
    "id": 2467813949,
    "place": "village",
    "coordinates": {
      "lat": 4.306833099560946,
      "lon": 9.8352694
    },
    "name": "Déné"
  },
  {
    "id": 2467813866,
    "place": "village",
    "coordinates": {
      "lat": 4.314287399560321,
      "lon": 9.8366011
    },
    "name": "Bonambassi"
  },
  {
    "id": 2467813856,
    "place": "village",
    "coordinates": {
      "lat": 4.327650599559199,
      "lon": 9.8365345
    },
    "name": "Bonalambo"
  },
  {
    "id": 2467813891,
    "place": "village",
    "coordinates": {
      "lat": 4.334077899558661,
      "lon": 9.849727999999999
    },
    "name": "Bonékoulé"
  },
  {
    "id": 2467813927,
    "place": "village",
    "coordinates": {
      "lat": 4.294193699562009,
      "lon": 9.8290534
    },
    "name": "Bwéné"
  },
  {
    "id": 2467813886,
    "place": "village",
    "coordinates": {
      "lat": 4.286649299562644,
      "lon": 9.8308251
    },
    "name": "Bonindi"
  },
  {
    "id": 2467814482,
    "place": "village",
    "coordinates": {
      "lat": 4.219519999568344,
      "lon": 9.8440403
    },
    "name": "Tondé"
  },
  {
    "id": 2467814273,
    "place": "village",
    "coordinates": {
      "lat": 4.2458271995661025,
      "lon": 9.8007804
    },
    "name": "Moussadi"
  },
  {
    "id": 2467814227,
    "place": "village",
    "coordinates": {
      "lat": 4.255750199565259,
      "lon": 9.821593200000002
    },
    "name": "Mbouma"
  },
  {
    "id": 2467813894,
    "place": "village",
    "coordinates": {
      "lat": 4.234687599567049,
      "lon": 9.776936499999998
    },
    "name": "Bonépéa"
  },
  {
    "id": 3675593372,
    "place": "village",
    "coordinates": {
      "lat": 4.2248201995678905,
      "lon": 9.727984799999998
    },
    "name": "Bongo"
  },
  {
    "id": 3675593411,
    "place": "village",
    "coordinates": {
      "lat": 4.210876599569082,
      "lon": 9.719114999999999
    },
    "name": "Yangonang"
  },
  {
    "id": 2467814493,
    "place": "village",
    "coordinates": {
      "lat": 4.202379999569811,
      "lon": 9.718135
    },
    "name": "Yabéa"
  },
  {
    "id": 3675593407,
    "place": "village",
    "coordinates": {
      "lat": 4.19119569957077,
      "lon": 9.7235108
    },
    "name": "Yalouka"
  },
  {
    "id": 3675593414,
    "place": "village",
    "coordinates": {
      "lat": 4.193544099570569,
      "lon": 9.727140899999998
    },
    "name": "Yassouka"
  },
  {
    "id": 3675593381,
    "place": "village",
    "coordinates": {
      "lat": 4.199215799570082,
      "lon": 9.7244874
    },
    "name": "Diwongo"
  },
  {
    "id": 3675593399,
    "place": "village",
    "coordinates": {
      "lat": 4.191241299570765,
      "lon": 9.7309565
    },
    "name": "Ngoki"
  },
  {
    "id": 3675593374,
    "place": "village",
    "coordinates": {
      "lat": 4.2211366995682065,
      "lon": 9.7544647
    },
    "name": "Bossamba"
  },
  {
    "id": 3675593369,
    "place": "village",
    "coordinates": {
      "lat": 4.187714799571068,
      "lon": 9.7642661
    },
    "name": "Bonangando"
  },
  {
    "id": 2467814500,
    "place": "village",
    "coordinates": {
      "lat": 4.187555799571083,
      "lon": 9.751245
    },
    "name": "Yassem"
  },
  {
    "id": 3675593405,
    "place": "village",
    "coordinates": {
      "lat": 4.184173099571372,
      "lon": 9.735676699999999
    },
    "name": "Yabakon"
  },
  {
    "id": 3675593412,
    "place": "village",
    "coordinates": {
      "lat": 4.187675099571071,
      "lon": 9.721226099999999
    },
    "name": "Yankouté"
  },
  {
    "id": 2467973472,
    "place": "village",
    "coordinates": {
      "lat": 4.124782499576505,
      "lon": 9.7753159
    },
    "name": "Lendi"
  },
  {
    "id": 2467973514,
    "place": "village",
    "coordinates": {
      "lat": 4.127621399576257,
      "lon": 9.830906
    },
    "name": "Massoumbou Carrefour"
  },
  {
    "id": 2467973503,
    "place": "village",
    "coordinates": {
      "lat": 4.151164599574218,
      "lon": 9.9516357
    },
    "name": "Mangoule"
  },
  {
    "id": 2467973111,
    "place": "village",
    "coordinates": {
      "lat": 4.151594599574181,
      "lon": 9.978193599999999
    },
    "name": "Bonépoupa II"
  },
  {
    "id": 7636739595,
    "place": "village",
    "coordinates": {
      "lat": 4.134825999575633,
      "lon": 10.014259399999998
    },
    "name": "Bonepoupa 1"
  },
  {
    "id": 2467813893,
    "place": "village",
    "coordinates": {
      "lat": 4.17281719957235,
      "lon": 10.0384282
    },
    "name": "Bonépoupa III"
  },
  {
    "id": 2467814323,
    "place": "village",
    "coordinates": {
      "lat": 4.254016899565406,
      "lon": 10.0729577
    },
    "name": "Ndokama"
  },
  {
    "id": 7644291806,
    "place": "locality",
    "coordinates": {
      "lat": 4.140199999575168,
      "lon": 10.1570995
    },
    "name": "Mbocmarcora"
  },
  {
    "id": 7659504965,
    "place": "village",
    "coordinates": {
      "lat": 4.39194729955385,
      "lon": 10.1583057
    },
    "name": "Ndokbabuengué"
  },
  {
    "id": 2467814355,
    "place": "village",
    "coordinates": {
      "lat": 4.384283499554484,
      "lon": 10.1208929
    },
    "name": "Ndokndak I"
  },
  {
    "id": 7659504921,
    "place": "village",
    "coordinates": {
      "lat": 4.406872599552618,
      "lon": 10.0887963
    },
    "name": "Ndokndak"
  },
  {
    "id": 2467814419,
    "place": "village",
    "coordinates": {
      "lat": 4.374114999555327,
      "lon": 10.011400699999998
    },
    "name": "Nsaké Ndoundak"
  },
  {
    "id": 2467814363,
    "place": "village",
    "coordinates": {
      "lat": 4.359078199556576,
      "lon": 10.021769499999998
    },
    "name": "Ndoksom"
  },
  {
    "id": 7659504920,
    "place": "village",
    "coordinates": {
      "lat": 4.410415999552326,
      "lon": 10.073649799999998
    },
    "name": "Ndoktaya"
  },
  {
    "id": 7659504893,
    "place": "village",
    "coordinates": {
      "lat": 4.407499299552566,
      "lon": 10.009351
    },
    "name": "Moukounda II"
  },
  {
    "id": 7659504906,
    "place": "village",
    "coordinates": {
      "lat": 4.466035799547769,
      "lon": 10.024658499999997
    },
    "name": "Ndogbao"
  },
  {
    "id": 7659504913,
    "place": "village",
    "coordinates": {
      "lat": 4.436486999550184,
      "lon": 10.0685831
    },
    "name": "Moukounda I"
  },
  {
    "id": 7659504907,
    "place": "village",
    "coordinates": {
      "lat": 4.421598399551406,
      "lon": 10.0665272
    },
    "name": "Ndokbos"
  },
  {
    "id": 2467814342,
    "place": "village",
    "coordinates": {
      "lat": 4.4235435995512455,
      "lon": 10.0791407
    },
    "name": "Ndokfaya Fée"
  },
  {
    "id": 2467814479,
    "place": "village",
    "coordinates": {
      "lat": 4.5378893995419585,
      "lon": 10.090266
    },
    "name": "Timté"
  },
  {
    "id": 2467813805,
    "place": "village",
    "coordinates": {
      "lat": 4.553019199540746,
      "lon": 10.024419899999998
    },
    "name": "Bi"
  },
  {
    "id": 2467813879,
    "place": "village",
    "coordinates": {
      "lat": 4.546346199541281,
      "lon": 10.017025699999998
    },
    "name": "Bonawonga"
  },
  {
    "id": 2467814339,
    "place": "village",
    "coordinates": {
      "lat": 4.568052299539546,
      "lon": 10.027793899999999
    },
    "name": "Ndokbékot"
  },
  {
    "id": 2467813862,
    "place": "village",
    "coordinates": {
      "lat": 4.568688799539495,
      "lon": 10.035014499999999
    },
    "name": "Bonalongso"
  },
  {
    "id": 2467814326,
    "place": "village",
    "coordinates": {
      "lat": 4.571887099539239,
      "lon": 10.0618368
    },
    "name": "Ndokati I"
  },
  {
    "id": 2467814327,
    "place": "village",
    "coordinates": {
      "lat": 4.587526599537997,
      "lon": 10.073529199999998
    },
    "name": "Ndokati II"
  },
  {
    "id": 2467813792,
    "place": "village",
    "coordinates": {
      "lat": 4.6021538995368365,
      "lon": 10.0572241
    },
    "name": "Benga I"
  },
  {
    "id": 2467813794,
    "place": "village",
    "coordinates": {
      "lat": 4.619301699535481,
      "lon": 10.0778067
    },
    "name": "Benga II"
  },
  {
    "id": 2467813799,
    "place": "village",
    "coordinates": {
      "lat": 4.57062889953934,
      "lon": 10.122541
    },
    "name": "Bewang"
  },
  {
    "id": 2467814484,
    "place": "village",
    "coordinates": {
      "lat": 4.697574099529361,
      "lon": 10.1581466
    },
    "name": "Toumbassala"
  },
  {
    "id": 2467814158,
    "place": "village",
    "coordinates": {
      "lat": 4.584218999538258,
      "lon": 10.2362122
    },
    "name": "Maninga"
  },
  {
    "id": 2467814086,
    "place": "village",
    "coordinates": {
      "lat": 4.578778099538691,
      "lon": 10.2366466
    },
    "name": "Makombé"
  },
  {
    "id": 2467814349,
    "place": "village",
    "coordinates": {
      "lat": 4.574252299539052,
      "lon": 10.2852996
    },
    "name": "Ndokmatchang"
  },
  {
    "id": 2467814325,
    "place": "village",
    "coordinates": {
      "lat": 4.540905799541717,
      "lon": 10.2831394
    },
    "name": "Ndokanyak"
  },
  {
    "id": 2389041504,
    "place": "town",
    "coordinates": {
      "lat": 4.528067399542749,
      "lon": 10.294019699999998
    },
    "name": "Yingui"
  },
  {
    "id": 2467814353,
    "place": "village",
    "coordinates": {
      "lat": 4.512605299543994,
      "lon": 10.286206899999998
    },
    "name": "Ndokmem I"
  },
  {
    "id": 2467814473,
    "place": "village",
    "coordinates": {
      "lat": 4.513404999543929,
      "lon": 10.279627399999999
    },
    "name": "Sud"
  },
  {
    "id": 7659505105,
    "place": "village",
    "coordinates": {
      "lat": 4.525655699542941,
      "lon": 10.236264799999999
    },
    "name": "Bataba"
  },
  {
    "id": 7659505131,
    "place": "village",
    "coordinates": {
      "lat": 4.527648599542782,
      "lon": 10.250736599999998
    },
    "name": "Ndokhendé"
  },
  {
    "id": 6945052762,
    "place": "village",
    "coordinates": {
      "lat": 4.521545999543271,
      "lon": 10.227035
    },
    "name": "Dibamba"
  },
  {
    "id": 2467814343,
    "place": "village",
    "coordinates": {
      "lat": 4.492242399545641,
      "lon": 10.196517599999998
    },
    "name": "Ndokfaya"
  },
  {
    "id": 2467813735,
    "place": "village",
    "coordinates": {
      "lat": 4.487803799545999,
      "lon": 10.204146599999998
    },
    "name": "Baketi"
  },
  {
    "id": 2467814332,
    "place": "village",
    "coordinates": {
      "lat": 4.4805139995465915,
      "lon": 10.1761901
    },
    "name": "Ndokbakand"
  },
  {
    "id": 2467814322,
    "place": "village",
    "coordinates": {
      "lat": 4.450393899549046,
      "lon": 10.155594299999999
    },
    "name": "Ndokmoueng"
  },
  {
    "id": 7659365297,
    "place": "village",
    "coordinates": {
      "lat": 4.4682605995475875,
      "lon": 10.373587799999997
    },
    "name": "Bakon"
  },
  {
    "id": 2467973479,
    "place": "village",
    "coordinates": {
      "lat": 4.451803999548931,
      "lon": 10.368407
    },
    "name": "Logndeng"
  },
  {
    "id": 7659410623,
    "place": "village",
    "coordinates": {
      "lat": 4.412548899552149,
      "lon": 10.373877199999999
    },
    "name": "Ndogngong"
  },
  {
    "id": 7644290088,
    "place": "locality",
    "coordinates": {
      "lat": 4.442561099549686,
      "lon": 10.3959234
    },
    "name": "Ebobo"
  },
  {
    "id": 7656634080,
    "place": "village",
    "coordinates": {
      "lat": 4.429672399550743,
      "lon": 10.4129083
    },
    "name": "Boumben"
  },
  {
    "id": 7644290089,
    "place": "village",
    "coordinates": {
      "lat": 4.468947899547531,
      "lon": 10.4289339
    },
    "name": "Massoan"
  },
  {
    "id": 7659365287,
    "place": "village",
    "coordinates": {
      "lat": 4.472843999547216,
      "lon": 10.4043045
    },
    "name": "Ndoktok"
  },
  {
    "id": 7644290090,
    "place": "village",
    "coordinates": {
      "lat": 4.47807029954679,
      "lon": 10.379592699999998
    },
    "name": "Mosse"
  },
  {
    "id": 2467973573,
    "place": "village",
    "coordinates": {
      "lat": 4.4775694995468305,
      "lon": 10.379229099999998
    },
    "name": "Mosse"
  },
  {
    "id": 7659303042,
    "place": "village",
    "coordinates": {
      "lat": 4.518203999543541,
      "lon": 10.358176799999999
    },
    "name": "Ndokmen Nord Chefférie"
  },
  {
    "id": 7659365286,
    "place": "village",
    "coordinates": {
      "lat": 4.503864599544698,
      "lon": 10.367737999999997
    },
    "name": "Ndoktoum"
  },
  {
    "id": 2467814418,
    "place": "village",
    "coordinates": {
      "lat": 4.511247699544102,
      "lon": 10.3677151
    },
    "name": "Fangué"
  },
  {
    "id": 2467814502,
    "place": "village",
    "coordinates": {
      "lat": 4.541563099541664,
      "lon": 10.335296699999999
    },
    "name": "Yingui II"
  },
  {
    "id": 7659588053,
    "place": "village",
    "coordinates": {
      "lat": 4.551274999540887,
      "lon": 10.3288873
    },
    "name": "Ndem 1"
  },
  {
    "id": 2467814306,
    "place": "village",
    "coordinates": {
      "lat": 4.55086519954092,
      "lon": 10.3276797
    },
    "name": "Ndem"
  },
  {
    "id": 3778108292,
    "place": "village",
    "coordinates": {
      "lat": 4.7002336995291545,
      "lon": 10.3505609
    },
    "name": "Bahalé"
  },
  {
    "id": 2467973411,
    "place": "village",
    "coordinates": {
      "lat": 4.461746899548118,
      "lon": 10.4569603
    },
    "name": "Iboti"
  },
  {
    "id": 7656188955,
    "place": "village",
    "coordinates": {
      "lat": 4.4411758995498,
      "lon": 10.486496499999998
    },
    "name": "Indik Molong"
  },
  {
    "id": 7636796124,
    "place": "village",
    "coordinates": {
      "lat": 4.4199589995515405,
      "lon": 10.453547099999998
    },
    "name": "Matanouye"
  },
  {
    "id": 7659365298,
    "place": "village",
    "coordinates": {
      "lat": 4.423958599551211,
      "lon": 10.47282
    },
    "name": "Logmbo"
  },
  {
    "id": 7659410622,
    "place": "village",
    "coordinates": {
      "lat": 4.447245199549303,
      "lon": 10.5202226
    },
    "name": "Ndikyen"
  },
  {
    "id": 7656177211,
    "place": "village",
    "coordinates": {
      "lat": 4.423427699551255,
      "lon": 10.515991299999998
    },
    "name": "Ndike-Mboum"
  },
  {
    "id": 7616490296,
    "place": "village",
    "coordinates": {
      "lat": 4.397704199553374,
      "lon": 10.533561399999998
    },
    "name": "Ndikbanamouan (Nyieng)"
  },
  {
    "id": 7636584049,
    "place": "village",
    "coordinates": {
      "lat": 4.3408408995580965,
      "lon": 10.528089
    },
    "name": "Issondje II"
  },
  {
    "id": 7636584050,
    "place": "village",
    "coordinates": {
      "lat": 4.319979399559841,
      "lon": 10.524296399999999
    },
    "name": "Biomoul"
  },
  {
    "id": 7636584088,
    "place": "village",
    "coordinates": {
      "lat": 4.301968499561354,
      "lon": 10.521817999999998
    },
    "name": "Lokat"
  },
  {
    "id": 11046750548,
    "place": "village",
    "coordinates": {
      "lat": 4.299349399561575,
      "lon": 10.508519399999999
    },
    "name": "Saha 3"
  },
  {
    "id": 7636431002,
    "place": "village",
    "coordinates": {
      "lat": 4.282893499562962,
      "lon": 10.5101562
    },
    "name": "Saha 2"
  },
  {
    "id": 7643949992,
    "place": "village",
    "coordinates": {
      "lat": 4.285896999562708,
      "lon": 10.520459399999998
    },
    "name": "Dibengui"
  },
  {
    "id": 7636584151,
    "place": "village",
    "coordinates": {
      "lat": 4.275242299563609,
      "lon": 10.519538099999998
    },
    "name": "Lek"
  },
  {
    "id": 7636437567,
    "place": "village",
    "coordinates": {
      "lat": 4.288000899562532,
      "lon": 10.4999126
    },
    "name": "Omog"
  },
  {
    "id": 7636437572,
    "place": "village",
    "coordinates": {
      "lat": 4.2934197995620735,
      "lon": 10.478409599999999
    },
    "name": "Nleleb"
  },
  {
    "id": 7636437558,
    "place": "village",
    "coordinates": {
      "lat": 4.294856099561953,
      "lon": 10.4691414
    },
    "name": "Nguimbock"
  },
  {
    "id": 7636437559,
    "place": "locality",
    "coordinates": {
      "lat": 4.299231899561585,
      "lon": 10.4616995
    },
    "name": "Boundary Camp"
  },
  {
    "id": 7636437560,
    "place": "village",
    "coordinates": {
      "lat": 4.312936699560432,
      "lon": 10.453167799999997
    },
    "name": "Lebaba Tola"
  },
  {
    "id": 7656684313,
    "place": "village",
    "coordinates": {
      "lat": 4.375122199555243,
      "lon": 10.479246499999999
    },
    "name": "Ndikoub"
  },
  {
    "id": 9952652789,
    "place": "village",
    "coordinates": {
      "lat": 4.390353499553981,
      "lon": 10.459605
    },
    "name": "Logyamba"
  },
  {
    "id": 7714416720,
    "place": "village",
    "coordinates": {
      "lat": 4.401328699553074,
      "lon": 10.4473901
    },
    "name": "Moupon"
  },
  {
    "id": 7636437566,
    "place": "village",
    "coordinates": {
      "lat": 4.379341799554893,
      "lon": 10.437500599999998
    },
    "name": "Masseng"
  },
  {
    "id": 7710550075,
    "place": "village",
    "coordinates": {
      "lat": 4.350589499557284,
      "lon": 10.4242435
    },
    "name": "Balikol"
  },
  {
    "id": 7710550076,
    "place": "village",
    "coordinates": {
      "lat": 4.347936399557505,
      "lon": 10.4221836
    },
    "name": "Ndickam"
  },
  {
    "id": 7656669790,
    "place": "village",
    "coordinates": {
      "lat": 4.347266899557562,
      "lon": 10.428252199999998
    },
    "name": "Ndickbalemb"
  },
  {
    "id": 7643950037,
    "place": "village",
    "coordinates": {
      "lat": 4.352468899557126,
      "lon": 10.4210377
    },
    "name": "Bekob"
  },
  {
    "id": 7643950036,
    "place": "village",
    "coordinates": {
      "lat": 4.356723999556771,
      "lon": 10.4251145
    },
    "name": "Ndikminokon 1"
  },
  {
    "id": 7703015673,
    "place": "village",
    "coordinates": {
      "lat": 4.381028499554753,
      "lon": 10.3906927
    },
    "name": "Bekombi"
  },
  {
    "id": 7644290117,
    "place": "locality",
    "coordinates": {
      "lat": 4.402506599552977,
      "lon": 10.3876184
    },
    "name": "Bikombi"
  },
  {
    "id": 7669735414,
    "place": "village",
    "coordinates": {
      "lat": 4.393383399553732,
      "lon": 10.3850764
    },
    "name": "Ndokminokon II"
  },
  {
    "id": 7644290120,
    "place": "locality",
    "coordinates": {
      "lat": 4.353618899557032,
      "lon": 10.337734499999998
    },
    "name": "Bassolongodo"
  },
  {
    "id": 7644290118,
    "place": "locality",
    "coordinates": {
      "lat": 4.36023289955648,
      "lon": 10.375598
    },
    "name": "Maféfé"
  },
  {
    "id": 7636772271,
    "place": "locality",
    "coordinates": {
      "lat": 4.331922199558842,
      "lon": 10.3593653
    },
    "name": "Bekongo"
  },
  {
    "id": 7644290121,
    "place": "locality",
    "coordinates": {
      "lat": 4.302748799561288,
      "lon": 10.338857
    },
    "name": "Mpope"
  },
  {
    "id": 7643950035,
    "place": "locality",
    "coordinates": {
      "lat": 4.307113799560922,
      "lon": 10.42586
    },
    "name": "Ndogbayembi"
  },
  {
    "id": 7636437563,
    "place": "village",
    "coordinates": {
      "lat": 4.331410099558886,
      "lon": 10.430176999999999
    },
    "name": "Ndogbanguendeng"
  },
  {
    "id": 7643950034,
    "place": "village",
    "coordinates": {
      "lat": 4.325424099559387,
      "lon": 10.4242078
    },
    "name": "Ndokbaembi"
  },
  {
    "id": 7636437562,
    "place": "village",
    "coordinates": {
      "lat": 4.326486199559298,
      "lon": 10.433429099999998
    },
    "name": "Ikem"
  },
  {
    "id": 7636437561,
    "place": "village",
    "coordinates": {
      "lat": 4.322966499559591,
      "lon": 10.4420137
    },
    "name": "Nkomandes"
  },
  {
    "id": 7644271762,
    "place": "locality",
    "coordinates": {
      "lat": 4.321578899559707,
      "lon": 10.4481582
    },
    "name": "Soya River"
  },
  {
    "id": 2460974382,
    "place": "village",
    "coordinates": {
      "lat": 4.119930199576925,
      "lon": 10.450574
    },
    "name": "Masseng"
  },
  {
    "id": 2460974526,
    "place": "village",
    "coordinates": {
      "lat": 4.141854399575023,
      "lon": 10.484573299999997
    },
    "name": "Tomel"
  },
  {
    "id": 2389012697,
    "place": "town",
    "coordinates": {
      "lat": 4.133004999575791,
      "lon": 10.46911
    },
    "name": "Massok"
  },
  {
    "id": 2460974348,
    "place": "village",
    "coordinates": {
      "lat": 4.153955399573978,
      "lon": 10.493210099999999
    },
    "name": "Kanga"
  },
  {
    "id": 7636584152,
    "place": "village",
    "coordinates": {
      "lat": 4.254325499565381,
      "lon": 10.514162999999998
    },
    "name": "Niel 2"
  },
  {
    "id": 7636437166,
    "place": "village",
    "coordinates": {
      "lat": 4.242328399566399,
      "lon": 10.512630599999998
    },
    "name": "Niel 1"
  },
  {
    "id": 7636584153,
    "place": "village",
    "coordinates": {
      "lat": 4.236864099566864,
      "lon": 10.5116524
    },
    "name": "Niel"
  },
  {
    "id": 2460974534,
    "place": "village",
    "coordinates": {
      "lat": 4.208553599569282,
      "lon": 10.5098142
    },
    "name": "Yoi"
  },
  {
    "id": 2460974470,
    "place": "village",
    "coordinates": {
      "lat": 4.226268699567768,
      "lon": 10.5508935
    },
    "name": "Nyée"
  },
  {
    "id": 2460974371,
    "place": "village",
    "coordinates": {
      "lat": 4.224552499567914,
      "lon": 10.5748861
    },
    "name": "Mandjap I"
  },
  {
    "id": 2460974416,
    "place": "village",
    "coordinates": {
      "lat": 4.2075330995693685,
      "lon": 10.590456999999999
    },
    "name": "Nkakmbom"
  },
  {
    "id": 2460974401,
    "place": "village",
    "coordinates": {
      "lat": 4.194551699570482,
      "lon": 10.5893687
    },
    "name": "Mouande"
  },
  {
    "id": 2460974522,
    "place": "village",
    "coordinates": {
      "lat": 4.189012799570959,
      "lon": 10.5824141
    },
    "name": "Songmbom"
  },
  {
    "id": 2460974460,
    "place": "village",
    "coordinates": {
      "lat": 4.165190899573008,
      "lon": 10.566181899999998
    },
    "name": "Nouya"
  },
  {
    "id": 2460974500,
    "place": "village",
    "coordinates": {
      "lat": 4.1435895995748755,
      "lon": 10.557197999999998
    },
    "name": "Pimbé I"
  },
  {
    "id": 2460974510,
    "place": "village",
    "coordinates": {
      "lat": 4.126084699576389,
      "lon": 10.557664099999998
    },
    "name": "Poutkat"
  },
  {
    "id": 2460974503,
    "place": "village",
    "coordinates": {
      "lat": 4.13463639957565,
      "lon": 10.5727613
    },
    "name": "Pimbé II"
  },
  {
    "id": 2460974306,
    "place": "village",
    "coordinates": {
      "lat": 4.1149681995773575,
      "lon": 10.5642797
    },
    "name": "Bakombé II"
  },
  {
    "id": 2460974412,
    "place": "village",
    "coordinates": {
      "lat": 4.107322099578023,
      "lon": 10.5622446
    },
    "name": "Ngombé"
  },
  {
    "id": 2460974524,
    "place": "village",
    "coordinates": {
      "lat": 4.090232699579515,
      "lon": 10.5608031
    },
    "name": "Songnkam"
  },
  {
    "id": 7636735079,
    "place": "village",
    "coordinates": {
      "lat": 4.083850599580072,
      "lon": 10.561116
    },
    "name": "Douokokoul"
  },
  {
    "id": 2460974385,
    "place": "village",
    "coordinates": {
      "lat": 4.056301799582488,
      "lon": 10.5943061
    },
    "name": "Mayohi II"
  },
  {
    "id": 2271161010,
    "place": "village",
    "coordinates": {
      "lat": 4.052581699582816,
      "lon": 10.5701519
    },
    "name": "Sackbayémé"
  },
  {
    "id": 2460974521,
    "place": "village",
    "coordinates": {
      "lat": 4.046266099583371,
      "lon": 10.5665096
    },
    "name": "Songmbengué"
  },
  {
    "id": 2460974369,
    "place": "village",
    "coordinates": {
      "lat": 4.056923499582432,
      "lon": 10.5641633
    },
    "name": "Mahop"
  },
  {
    "id": 2460974298,
    "place": "village",
    "coordinates": {
      "lat": 4.072677799581051,
      "lon": 10.5653042
    },
    "name": "Autochtone"
  },
  {
    "id": 2460974520,
    "place": "village",
    "coordinates": {
      "lat": 4.080737399580346,
      "lon": 10.5641828
    },
    "name": "Songmbengue"
  },
  {
    "id": 7636735080,
    "place": "village",
    "coordinates": {
      "lat": 4.08444789958002,
      "lon": 10.538353799999998
    },
    "name": "Ndojey"
  },
  {
    "id": 2460974310,
    "place": "village",
    "coordinates": {
      "lat": 4.091580799579397,
      "lon": 10.5524734
    },
    "name": "Bissonga"
  },
  {
    "id": 2460974313,
    "place": "village",
    "coordinates": {
      "lat": 4.104028299578309,
      "lon": 10.5441983
    },
    "name": "Botko"
  },
  {
    "id": 7710573540,
    "place": "village",
    "coordinates": {
      "lat": 4.101196199578558,
      "lon": 10.467474699999999
    },
    "name": "Songloulou village"
  },
  {
    "id": 2460974513,
    "place": "village",
    "coordinates": {
      "lat": 4.030688799584743,
      "lon": 10.568105799999998
    },
    "name": "Sakbayémé III"
  },
  {
    "id": 2460974315,
    "place": "village",
    "coordinates": {
      "lat": 4.038481799584056,
      "lon": 10.566039999999997
    },
    "name": "Dikongué"
  },
  {
    "id": 2460974516,
    "place": "village",
    "coordinates": {
      "lat": 4.031132499584703,
      "lon": 10.576408
    },
    "name": "Sakbyémé II"
  },
  {
    "id": 2460695511,
    "place": "village",
    "coordinates": {
      "lat": 3.9909012995882662,
      "lon": 10.577312799999998
    },
    "name": "Sindongui II"
  },
  {
    "id": 2460695205,
    "place": "village",
    "coordinates": {
      "lat": 3.976281899589566,
      "lon": 10.5601917
    },
    "name": "Biboumha"
  },
  {
    "id": 2460695329,
    "place": "village",
    "coordinates": {
      "lat": 3.9664259995904447,
      "lon": 10.587305299999999
    },
    "name": "Makob"
  },
  {
    "id": 7636735081,
    "place": "village",
    "coordinates": {
      "lat": 3.946978599592181,
      "lon": 10.5891521
    },
    "name": "Log Dikit 2"
  },
  {
    "id": 2460695314,
    "place": "village",
    "coordinates": {
      "lat": 3.9439138995924554,
      "lon": 10.591730799999999
    },
    "name": "Log Dikit"
  },
  {
    "id": 2460695315,
    "place": "village",
    "coordinates": {
      "lat": 3.9592868995910813,
      "lon": 10.550559199999999
    },
    "name": "Log Mbong"
  },
  {
    "id": 2460695250,
    "place": "village",
    "coordinates": {
      "lat": 3.9368137995930903,
      "lon": 10.5333122
    },
    "name": "Dikonob"
  },
  {
    "id": 2460695560,
    "place": "village",
    "coordinates": {
      "lat": 3.9469852995921797,
      "lon": 10.5491777
    },
    "name": "Song Simout"
  },
  {
    "id": 2460695457,
    "place": "village",
    "coordinates": {
      "lat": 3.9051537995959342,
      "lon": 10.5720433
    },
    "name": "Nkonga"
  },
  {
    "id": 7636677662,
    "place": "village",
    "coordinates": {
      "lat": 3.909077399595581,
      "lon": 10.5763024
    },
    "name": "Log Dikit"
  },
  {
    "id": 7636735082,
    "place": "village",
    "coordinates": {
      "lat": 3.9254100995941137,
      "lon": 10.587748
    },
    "name": "Log Dikit 1"
  },
  {
    "id": 2460695211,
    "place": "village",
    "coordinates": {
      "lat": 3.918406899594742,
      "lon": 10.588339799999998
    },
    "name": "Bihiang"
  },
  {
    "id": 2460695312,
    "place": "village",
    "coordinates": {
      "lat": 3.861213799599904,
      "lon": 10.5869444
    },
    "name": "Log Bakoo"
  },
  {
    "id": 2460695455,
    "place": "village",
    "coordinates": {
      "lat": 3.854107199600549,
      "lon": 10.5613329
    },
    "name": "Nkondjok"
  },
  {
    "id": 2222805840,
    "place": "town",
    "coordinates": {
      "lat": 3.854625899600501,
      "lon": 10.525192
    },
    "name": "Pouma"
  },
  {
    "id": 7636739594,
    "place": "village",
    "coordinates": {
      "lat": 3.885730199597686,
      "lon": 10.545412200000001
    },
    "name": "Nkonga"
  },
  {
    "id": 2460695278,
    "place": "village",
    "coordinates": {
      "lat": 3.8921069995971105,
      "lon": 10.5173849
    },
    "name": "Hegba Pouma"
  },
  {
    "id": 2460695448,
    "place": "village",
    "coordinates": {
      "lat": 3.8436530996014975,
      "lon": 10.464550599999999
    },
    "name": "Ngwei II"
  },
  {
    "id": 2460695447,
    "place": "village",
    "coordinates": {
      "lat": 3.8358750996022053,
      "lon": 10.4467331
    },
    "name": "Ngwei I"
  },
  {
    "id": 2460695351,
    "place": "village",
    "coordinates": {
      "lat": 3.8324988996025127,
      "lon": 10.4093842
    },
    "name": "Mapubi"
  },
  {
    "id": 2460974316,
    "place": "village",
    "coordinates": {
      "lat": 4.0382947995840714,
      "lon": 10.344521899999998
    },
    "name": "Dikouss 2"
  },
  {
    "id": 7636732880,
    "place": "village",
    "coordinates": {
      "lat": 4.080604899580357,
      "lon": 10.3804619
    },
    "name": "Ndobyanga"
  },
  {
    "id": 7636732859,
    "place": "village",
    "coordinates": {
      "lat": 4.10000249957866,
      "lon": 10.4279179
    },
    "name": "Dissat"
  },
  {
    "id": 7636732869,
    "place": "village",
    "coordinates": {
      "lat": 4.081293099580296,
      "lon": 10.401766599999998
    },
    "name": "Dissat 2"
  },
  {
    "id": 2460974318,
    "place": "village",
    "coordinates": {
      "lat": 4.081310299580294,
      "lon": 10.401319999999998
    },
    "name": "Dissat"
  },
  {
    "id": 7636732879,
    "place": "village",
    "coordinates": {
      "lat": 4.0866591995798265,
      "lon": 10.3865155
    },
    "name": "Dissat 3"
  },
  {
    "id": 2146677215,
    "place": "village",
    "coordinates": {
      "lat": 4.073582199580971,
      "lon": 10.3701499
    },
    "name": "Ngonga"
  },
  {
    "id": 7636732881,
    "place": "village",
    "coordinates": {
      "lat": 4.054951499582606,
      "lon": 10.3554155
    },
    "name": "Dikouss"
  },
  {
    "id": 2460695454,
    "place": "village",
    "coordinates": {
      "lat": 3.9830093995889673,
      "lon": 10.1941399
    },
    "name": "Nkom"
  },
  {
    "id": 2467973834,
    "place": "village",
    "coordinates": {
      "lat": 4.094696699579124,
      "lon": 10.0366985
    },
    "name": "Sodikoa"
  },
  {
    "id": 2271161005,
    "place": "village",
    "coordinates": {
      "lat": 4.08033159958038,
      "lon": 10.0374623
    },
    "name": "Bonepoupá"
  },
  {
    "id": 2467973100,
    "place": "village",
    "coordinates": {
      "lat": 4.075829699580774,
      "lon": 10.038014399999998
    },
    "name": "Bonepoupa I"
  },
  {
    "id": 3778809018,
    "place": "village",
    "coordinates": {
      "lat": 3.997121799587713,
      "lon": 10.0179412
    },
    "name": "Lungahé"
  },
  {
    "id": 2389032630,
    "place": "town",
    "coordinates": {
      "lat": 3.9750180995896782,
      "lon": 10.102674799999999
    },
    "name": "Logbadjek"
  },
  {
    "id": 2460695200,
    "place": "village",
    "coordinates": {
      "lat": 3.9913702995882234,
      "lon": 10.1001523
    },
    "name": "Bessombé"
  },
  {
    "id": 2460695503,
    "place": "village",
    "coordinates": {
      "lat": 4.009213599586641,
      "lon": 10.0938792
    },
    "name": "Pout-Toupou-Ngogom"
  },
  {
    "id": 2460695198,
    "place": "village",
    "coordinates": {
      "lat": 3.9563328995913447,
      "lon": 10.138082499999998
    },
    "name": "Bienkok"
  },
  {
    "id": 7636735073,
    "place": "village",
    "coordinates": {
      "lat": 3.962173899590823,
      "lon": 10.145034499999998
    },
    "name": "Bienkok"
  },
  {
    "id": 7636735075,
    "place": "village",
    "coordinates": {
      "lat": 3.9558937995913843,
      "lon": 10.122387399999997
    },
    "name": "Kopongo"
  },
  {
    "id": 2460695333,
    "place": "village",
    "coordinates": {
      "lat": 3.8973025995966433,
      "lon": 10.1025587
    },
    "name": "Malimba I"
  },
  {
    "id": 2460695291,
    "place": "village",
    "coordinates": {
      "lat": 3.9545502995915043,
      "lon": 10.111698099999998
    },
    "name": "Kopongo"
  },
  {
    "id": 2460695414,
    "place": "village",
    "coordinates": {
      "lat": 3.8303850996027036,
      "lon": 10.063310500000002
    },
    "name": "Mévia"
  },
  {
    "id": 2460695334,
    "place": "village",
    "coordinates": {
      "lat": 3.849202799600993,
      "lon": 10.107244999999999
    },
    "name": "Malimba II"
  },
  {
    "id": 2460695582,
    "place": "village",
    "coordinates": {
      "lat": 3.880004899598202,
      "lon": 10.1538564
    },
    "name": "Telep"
  },
  {
    "id": 2460695403,
    "place": "village",
    "coordinates": {
      "lat": 3.8581396996001818,
      "lon": 10.140564099999999
    },
    "name": "Mongombé"
  },
  {
    "id": 2460695421,
    "place": "village",
    "coordinates": {
      "lat": 3.8630503995997376,
      "lon": 10.190946399999998
    },
    "name": "Ndog Makoumek"
  },
  {
    "id": 2460695498,
    "place": "village",
    "coordinates": {
      "lat": 3.8706606995990467,
      "lon": 10.17713
    },
    "name": "Pout Loloma"
  },
  {
    "id": 2460695523,
    "place": "village",
    "coordinates": {
      "lat": 3.970147499590111,
      "lon": 10.160272599999999
    },
    "name": "Somakak"
  },
  {
    "id": 7636735072,
    "place": "village",
    "coordinates": {
      "lat": 3.9647361995905945,
      "lon": 10.169059999999998
    },
    "name": "Njouma"
  },
  {
    "id": 2460695501,
    "place": "village",
    "coordinates": {
      "lat": 3.956463499591332,
      "lon": 10.170481199999998
    },
    "name": "Pout Njouma"
  },
  {
    "id": 7636732882,
    "place": "village",
    "coordinates": {
      "lat": 3.9483193995920596,
      "lon": 10.2289085
    },
    "name": "Malo"
  },
  {
    "id": 7636734994,
    "place": "village",
    "coordinates": {
      "lat": 3.919053099594685,
      "lon": 10.2083944
    },
    "name": "Bertouan"
  },
  {
    "id": 2460695546,
    "place": "village",
    "coordinates": {
      "lat": 3.816498099603971,
      "lon": 10.2898847
    },
    "name": "Song Mbog"
  },
  {
    "id": 2460695553,
    "place": "village",
    "coordinates": {
      "lat": 3.821641599603502,
      "lon": 10.2556621
    },
    "name": "Song Ndong"
  },
  {
    "id": 2460695332,
    "place": "town",
    "coordinates": {
      "lat": 3.7597633996091697,
      "lon": 10.2636498
    },
    "name": "Makondo"
  },
  {
    "id": 2460695357,
    "place": "village",
    "coordinates": {
      "lat": 3.746544999610386,
      "lon": 10.2906923
    },
    "name": "Mbambelé"
  },
  {
    "id": 2460695275,
    "place": "village",
    "coordinates": {
      "lat": 3.7078505996139635,
      "lon": 10.284773200000002
    },
    "name": "Etouha"
  },
  {
    "id": 2460695328,
    "place": "village",
    "coordinates": {
      "lat": 3.6992439996147617,
      "lon": 10.276349799999998
    },
    "name": "Makek"
  },
  {
    "id": 2460695326,
    "place": "village",
    "coordinates": {
      "lat": 3.734420599611505,
      "lon": 10.2442419
    },
    "name": "Makay"
  },
  {
    "id": 2460695465,
    "place": "village",
    "coordinates": {
      "lat": 3.776667399607615,
      "lon": 10.176202699999997
    },
    "name": "Ntouma"
  },
  {
    "id": 2460695453,
    "place": "village",
    "coordinates": {
      "lat": 3.7634852996088264,
      "lon": 10.1747925
    },
    "name": "Nkak Anzok"
  },
  {
    "id": 2460695413,
    "place": "village",
    "coordinates": {
      "lat": 3.8066693996048686,
      "lon": 10.185695599999999
    },
    "name": "Métounga"
  },
  {
    "id": 2460695194,
    "place": "village",
    "coordinates": {
      "lat": 3.8066586996048697,
      "lon": 10.154880199999997
    },
    "name": "Batombé"
  },
  {
    "id": 331133522,
    "place": "city",
    "coordinates": {
      "lat": 3.799013099605568,
      "lon": 10.126556699999998
    },
    "name": "Edéa"
  },
  {
    "id": 9865771263,
    "place": "locality",
    "coordinates": {
      "lat": 3.788978999606487,
      "lon": 10.141441699999998
    },
    "name": "Carrefour Kribi"
  },
  {
    "id": 6144851473,
    "place": "neighbourhood",
    "coordinates": {
      "lat": 3.787881199606588,
      "lon": 10.1434888
    },
    "name": "Ntoumba"
  },
  {
    "id": 2460695268,
    "place": "village",
    "coordinates": {
      "lat": 3.7866754996066962,
      "lon": 10.1509211
    },
    "name": "Elog Bele"
  },
  {
    "id": 6144873504,
    "place": "village",
    "coordinates": {
      "lat": 3.768171399608396,
      "lon": 10.149932799999998
    },
    "name": "Nzock Nkong"
  },
  {
    "id": 2460695245,
    "place": "village",
    "coordinates": {
      "lat": 3.7587756996092603,
      "lon": 10.1241638
    },
    "name": "Béon"
  },
  {
    "id": 2460695424,
    "place": "village",
    "coordinates": {
      "lat": 3.768842399608334,
      "lon": 10.0955559
    },
    "name": "Ndogbinan Lom"
  },
  {
    "id": 2460695265,
    "place": "town",
    "coordinates": {
      "lat": 3.803562899605152,
      "lon": 10.086779899999998
    },
    "name": "Ekité"
  },
  {
    "id": 10842005389,
    "place": "village",
    "coordinates": {
      "lat": 3.7643869996087433,
      "lon": 10.058230200000002
    },
    "name": "Bossambo Farm"
  },
  {
    "id": 2460695281,
    "place": "village",
    "coordinates": {
      "lat": 3.7751946996077512,
      "lon": 10.055048
    },
    "name": "Ile"
  },
  {
    "id": 2460695567,
    "place": "village",
    "coordinates": {
      "lat": 3.78588309960677,
      "lon": 10.072454
    },
    "name": "Songueland"
  },
  {
    "id": 2123937944,
    "place": "town",
    "coordinates": {
      "lat": 3.7465886996103825,
      "lon": 10.018060199999999
    },
    "name": "Dizangué"
  },
  {
    "id": 2460695293,
    "place": "village",
    "coordinates": {
      "lat": 3.6810601996164505,
      "lon": 10.017175
    },
    "name": "Kouté"
  },
  {
    "id": 10842005386,
    "place": "village",
    "coordinates": {
      "lat": 3.698651599614817,
      "lon": 10.104911299999998
    },
    "name": "Koukoué"
  },
  {
    "id": 2460695262,
    "place": "village",
    "coordinates": {
      "lat": 3.7432515996106903,
      "lon": 10.118046999999999
    },
    "name": "Eboka"
  },
  {
    "id": 10842005388,
    "place": "village",
    "coordinates": {
      "lat": 3.7342178996115245,
      "lon": 10.1150608
    },
    "name": "Besseng"
  },
  {
    "id": 10842005387,
    "place": "village",
    "coordinates": {
      "lat": 3.750009199610066,
      "lon": 10.1535773
    },
    "name": "Okor"
  },
  {
    "id": 2460695178,
    "place": "village",
    "coordinates": {
      "lat": 3.640692599620217,
      "lon": 10.115285799999999
    },
    "name": "Apouh"
  },
  {
    "id": 10842005354,
    "place": "village",
    "coordinates": {
      "lat": 3.65382249961899,
      "lon": 10.114653099999998
    },
    "name": "Nkoaya"
  },
  {
    "id": 2460695409,
    "place": "village",
    "coordinates": {
      "lat": 3.574338299626452,
      "lon": 10.009629899999998
    },
    "name": "Mpolbé"
  },
  {
    "id": 2460695601,
    "place": "village",
    "coordinates": {
      "lat": 3.552155999628548,
      "lon": 10.011660999999998
    },
    "name": "Yambong"
  },
  {
    "id": 2460695638,
    "place": "village",
    "coordinates": {
      "lat": 3.536586499630023,
      "lon": 10.025403999999998
    },
    "name": "Élogkam"
  },
  {
    "id": 10842005353,
    "place": "village",
    "coordinates": {
      "lat": 3.555708599628211,
      "lon": 10.114846199999999
    },
    "name": "Song Abwi"
  },
  {
    "id": 2460695276,
    "place": "village",
    "coordinates": {
      "lat": 3.577499599626153,
      "lon": 10.112390399999999
    },
    "name": "Ferme Suisse"
  },
  {
    "id": 2460695520,
    "place": "village",
    "coordinates": {
      "lat": 3.6253487996216536,
      "lon": 10.219006500000003
    },
    "name": "Soloba"
  },
  {
    "id": 2460695229,
    "place": "village",
    "coordinates": {
      "lat": 3.6038369996236725,
      "lon": 10.2099811
    },
    "name": "Bitoutouk"
  },
  {
    "id": 2460695247,
    "place": "village",
    "coordinates": {
      "lat": 3.6345554996207907,
      "lon": 10.2711261
    },
    "name": "Digombi"
  },
  {
    "id": 2460695419,
    "place": "village",
    "coordinates": {
      "lat": 3.605732499623495,
      "lon": 10.2774999
    },
    "name": "Ndjokloumbe"
  },
  {
    "id": 2460695362,
    "place": "village",
    "coordinates": {
      "lat": 3.6003007996240064,
      "lon": 10.303851199999999
    },
    "name": "Mbandjock"
  },
  {
    "id": 2460695514,
    "place": "village",
    "coordinates": {
      "lat": 3.579129699626,
      "lon": 10.4138263
    },
    "name": "So Hianga"
  },
  {
    "id": 2460695285,
    "place": "village",
    "coordinates": {
      "lat": 3.587220399625237,
      "lon": 10.377784
    },
    "name": "Kellé Mpek"
  },
  {
    "id": 2460695284,
    "place": "village",
    "coordinates": {
      "lat": 3.619775499622176,
      "lon": 10.381035799999998
    },
    "name": "Kellé Bidjoka"
  },
  {
    "id": 2460695371,
    "place": "village",
    "coordinates": {
      "lat": 3.630242099621195,
      "lon": 10.4240936
    },
    "name": "Mbengué II"
  },
  {
    "id": 9945164126,
    "place": "village",
    "coordinates": {
      "lat": 3.670096999617472,
      "lon": 10.3763187
    },
    "name": "Mabééga"
  },
  {
    "id": 2460695340,
    "place": "village",
    "coordinates": {
      "lat": 3.720875499612757,
      "lon": 10.32382
    },
    "name": "Mandjap"
  },
  {
    "id": 2460695631,
    "place": "village",
    "coordinates": {
      "lat": 3.810220899604543,
      "lon": 10.3237392
    },
    "name": "Ébombé"
  },
  {
    "id": 2460695318,
    "place": "village",
    "coordinates": {
      "lat": 3.81115259960446,
      "lon": 10.373114299999997
    },
    "name": "Logbi"
  },
  {
    "id": 9945168276,
    "place": "village",
    "coordinates": {
      "lat": 3.7579743996093335,
      "lon": 10.4327201
    },
    "name": "Mboui II"
  },
  {
    "id": 2460695295,
    "place": "village",
    "coordinates": {
      "lat": 3.732271999611703,
      "lon": 10.3892752
    },
    "name": "Kélé Ndongond"
  },
  {
    "id": 2460695518,
    "place": "village",
    "coordinates": {
      "lat": 3.695979799615065,
      "lon": 10.385673699999998
    },
    "name": "Sodibanga"
  },
  {
    "id": 9945164125,
    "place": "village",
    "coordinates": {
      "lat": 3.692677399615372,
      "lon": 10.4648209
    },
    "name": "Song Ngombé"
  },
  {
    "id": 6077479350,
    "place": "isolated_dwelling",
    "coordinates": {
      "lat": 3.689476299615669,
      "lon": 10.453767899999999
    },
    "name": "St Paulin"
  },
  {
    "id": 2219667213,
    "place": "town",
    "coordinates": {
      "lat": 3.694708799615182,
      "lon": 10.451173199999998
    },
    "name": "Messondo"
  },
  {
    "id": 6077805983,
    "place": "square",
    "coordinates": {
      "lat": 3.6974064996149316,
      "lon": 10.4527182
    },
    "name": "Résidence du Sous-préfet"
  },
  {
    "id": 6077715084,
    "place": "square",
    "coordinates": {
      "lat": 3.69591799961507,
      "lon": 10.452377199999999
    },
    "name": "Place des fêtes"
  },
  {
    "id": 6077805894,
    "place": "square",
    "coordinates": {
      "lat": 3.7012056996145795,
      "lon": 10.454719999999998
    },
    "name": "Chefferie Plateau"
  },
  {
    "id": 2460695376,
    "place": "village",
    "coordinates": {
      "lat": 3.7554677996095656,
      "lon": 10.4514523
    },
    "name": "Mboui I"
  },
  {
    "id": 2460695516,
    "place": "village",
    "coordinates": {
      "lat": 3.785963299606763,
      "lon": 10.4617119
    },
    "name": "So Kélé"
  },
  {
    "id": 2460695423,
    "place": "village",
    "coordinates": {
      "lat": 3.66817889961765,
      "lon": 10.562689
    },
    "name": "Ndogbessol"
  },
  {
    "id": 2460695266,
    "place": "village",
    "coordinates": {
      "lat": 3.642233299620073,
      "lon": 10.552120099999998
    },
    "name": "Ekokboum"
  },
  {
    "id": 2460695370,
    "place": "village",
    "coordinates": {
      "lat": 3.6599336996184197,
      "lon": 10.4507435
    },
    "name": "Mbengué I"
  },
  {
    "id": 2460695584,
    "place": "village",
    "coordinates": {
      "lat": 3.548703199628875,
      "lon": 10.4827516
    },
    "name": "Timalom"
  },
  {
    "id": 2460695556,
    "place": "village",
    "coordinates": {
      "lat": 3.546695199629065,
      "lon": 10.565813699999998
    },
    "name": "Song Ntoumé"
  },
  {
    "id": 9945255423,
    "place": "village",
    "coordinates": {
      "lat": 3.56990229962687,
      "lon": 10.5988401
    },
    "name": "Abokam"
  },
  {
    "id": 9945255422,
    "place": "village",
    "coordinates": {
      "lat": 3.5867457996252807,
      "lon": 10.6175888
    },
    "name": "Manguéla"
  },
  {
    "id": 9945234083,
    "place": "village",
    "coordinates": {
      "lat": 3.5356947996301065,
      "lon": 10.6644738
    },
    "name": "Bodi"
  },
  {
    "id": 2460695345,
    "place": "village",
    "coordinates": {
      "lat": 3.540786899629625,
      "lon": 10.715331899999999
    },
    "name": "Manguéngués"
  },
  {
    "id": 9945234082,
    "place": "village",
    "coordinates": {
      "lat": 3.5719206996266797,
      "lon": 10.7164764
    },
    "name": "Tos"
  },
  {
    "id": 2460695438,
    "place": "village",
    "coordinates": {
      "lat": 3.581321699625792,
      "lon": 10.719384899999998
    },
    "name": "Ngog"
  },
  {
    "id": 2460695532,
    "place": "village",
    "coordinates": {
      "lat": 3.5898006996249943,
      "lon": 10.7347973
    },
    "name": "Song Hot"
  },
  {
    "id": 2460695529,
    "place": "village",
    "coordinates": {
      "lat": 3.649502599619394,
      "lon": 10.731060199999998
    },
    "name": "Song Bikoum"
  },
  {
    "id": 2460695444,
    "place": "village",
    "coordinates": {
      "lat": 3.667426299617721,
      "lon": 10.676538299999999
    },
    "name": "Badjob"
  },
  {
    "id": 10200074812,
    "place": "village",
    "coordinates": {
      "lat": 3.658512099618551,
      "lon": 10.667440299999999
    },
    "name": "Stion"
  },
  {
    "id": 2460695440,
    "place": "village",
    "coordinates": {
      "lat": 3.6401884996202636,
      "lon": 10.6364868
    },
    "name": "Ngongos"
  },
  {
    "id": 2460695210,
    "place": "village",
    "coordinates": {
      "lat": 3.6806366996164903,
      "lon": 10.607324799999999
    },
    "name": "Bidjoka"
  },
  {
    "id": 10200074810,
    "place": "village",
    "coordinates": {
      "lat": 3.7002575996146674,
      "lon": 10.6595492
    },
    "name": "Song Lebot"
  },
  {
    "id": 2460695558,
    "place": "village",
    "coordinates": {
      "lat": 3.726765399612213,
      "lon": 10.6578749
    },
    "name": "Song Poa"
  },
  {
    "id": 2460695461,
    "place": "village",
    "coordinates": {
      "lat": 3.7402762996109655,
      "lon": 10.650001399999999
    },
    "name": "Nsonga"
  },
  {
    "id": 2460695563,
    "place": "village",
    "coordinates": {
      "lat": 3.7673399996084718,
      "lon": 10.7004591
    },
    "name": "Song Dibong"
  },
  {
    "id": 2911109169,
    "place": "town",
    "coordinates": {
      "lat": 3.8186059996037787,
      "lon": 10.741788
    },
    "name": "Biyouha"
  },
  {
    "id": 2460695382,
    "place": "village",
    "coordinates": {
      "lat": 3.777466199607541,
      "lon": 10.735704
    },
    "name": "Memel"
  },
  {
    "id": 2460695527,
    "place": "village",
    "coordinates": {
      "lat": 3.7344503996115024,
      "lon": 10.731232
    },
    "name": "Song Bayang"
  },
  {
    "id": 2460695240,
    "place": "village",
    "coordinates": {
      "lat": 3.7278770996121096,
      "lon": 10.678100499999998
    },
    "name": "Bongsombi"
  },
  {
    "id": 2460695445,
    "place": "village",
    "coordinates": {
      "lat": 3.6860587996159864,
      "lon": 10.684076
    },
    "name": "Nguibassal"
  },
  {
    "id": 2460695222,
    "place": "village",
    "coordinates": {
      "lat": 3.6914201996154885,
      "lon": 10.6988699
    },
    "name": "Bilagal"
  },
  {
    "id": 2460695542,
    "place": "village",
    "coordinates": {
      "lat": 3.708273299613924,
      "lon": 10.7521407
    },
    "name": "Song Mandeng"
  },
  {
    "id": 2460695280,
    "place": "village",
    "coordinates": {
      "lat": 3.685444999616043,
      "lon": 10.782404099999999
    },
    "name": "Ilanga"
  },
  {
    "id": 943256281,
    "place": "village",
    "coordinates": {
      "lat": 3.7327154996116634,
      "lon": 10.807787999999999
    },
    "name": "Bokso"
  },
  {
    "id": 2460695350,
    "place": "village",
    "coordinates": {
      "lat": 3.7841877996069253,
      "lon": 10.822815699999998
    },
    "name": "Mapan"
  },
  {
    "id": 2460695307,
    "place": "village",
    "coordinates": {
      "lat": 3.74759399961029,
      "lon": 10.8543548
    },
    "name": "Limoug Lehog"
  },
  {
    "id": 2460695572,
    "place": "village",
    "coordinates": {
      "lat": 3.6182471996223198,
      "lon": 10.8521217
    },
    "name": "Souhé"
  },
  {
    "id": 10200074811,
    "place": "village",
    "coordinates": {
      "lat": 3.6551554996188647,
      "lon": 10.7551217
    },
    "name": "Mboga"
  },
  {
    "id": 2218590206,
    "place": "city",
    "coordinates": {
      "lat": 3.6412876996201606,
      "lon": 10.7741803
    },
    "name": "Éséka"
  },
  {
    "id": 2460695443,
    "place": "village",
    "coordinates": {
      "lat": 3.5832206996256133,
      "lon": 10.802766899999998
    },
    "name": "Nguibassal"
  },
  {
    "id": 2460695451,
    "place": "village",
    "coordinates": {
      "lat": 3.6021047996238353,
      "lon": 10.7956585
    },
    "name": "Njok"
  },
  {
    "id": 2460695331,
    "place": "village",
    "coordinates": {
      "lat": 3.540247199629676,
      "lon": 10.8110923
    },
    "name": "Makomol"
  },
  {
    "id": 2460695442,
    "place": "village",
    "coordinates": {
      "lat": 3.5715780996267115,
      "lon": 10.8368629
    },
    "name": "Nguibassal II"
  },
  {
    "id": 2460695324,
    "place": "village",
    "coordinates": {
      "lat": 3.6021703996238297,
      "lon": 10.8717069
    },
    "name": "Mahomey"
  },
  {
    "id": 2460695565,
    "place": "village",
    "coordinates": {
      "lat": 3.5846699996254774,
      "lon": 10.889368499999998
    },
    "name": "Song Badjek"
  },
  {
    "id": 2460695339,
    "place": "village",
    "coordinates": {
      "lat": 3.5661251996272263,
      "lon": 10.865309999999997
    },
    "name": "Mandjak"
  },
  {
    "id": 2460695308,
    "place": "village",
    "coordinates": {
      "lat": 3.5511169996286465,
      "lon": 10.9160224
    },
    "name": "Lipombé"
  },
  {
    "id": 8541814746,
    "place": "village",
    "coordinates": {
      "lat": 3.536026799630076,
      "lon": 10.9574139
    },
    "name": "Koukoum"
  },
  {
    "id": 3778868149,
    "place": "village",
    "coordinates": {
      "lat": 3.5667103996271714,
      "lon": 10.937268600000001
    },
    "name": "Maloume"
  },
  {
    "id": 2460695388,
    "place": "village",
    "coordinates": {
      "lat": 3.5960741996244043,
      "lon": 10.923598299999998
    },
    "name": "Minloo (Lissai)"
  },
  {
    "id": 2460695373,
    "place": "village",
    "coordinates": {
      "lat": 3.657843699618614,
      "lon": 10.976815399999998
    },
    "name": "Mboglom"
  },
  {
    "id": 2460695446,
    "place": "village",
    "coordinates": {
      "lat": 3.57075669962679,
      "lon": 11.022974
    },
    "name": "Ngwaté"
  },
  {
    "id": 3778868152,
    "place": "village",
    "coordinates": {
      "lat": 3.5695087996269073,
      "lon": 10.9841846
    },
    "name": "Ngwate"
  },
  {
    "id": 2460695459,
    "place": "village",
    "coordinates": {
      "lat": 3.5557087996282117,
      "lon": 11.0142391
    },
    "name": "Nkongui"
  },
  {
    "id": 2099747940,
    "place": "town",
    "coordinates": {
      "lat": 3.547975899628943,
      "lon": 11.027836
    },
    "name": "Makak"
  },
  {
    "id": 2460695196,
    "place": "village",
    "coordinates": {
      "lat": 3.5345708996302134,
      "lon": 11.020882699999998
    },
    "name": "Beng-Nyong"
  },
  {
    "id": 2460695321,
    "place": "village",
    "coordinates": {
      "lat": 3.5321184996304464,
      "lon": 11.0448108
    },
    "name": "Lom"
  },
  {
    "id": 8541413213,
    "place": "village",
    "coordinates": {
      "lat": 3.549829799628767,
      "lon": 11.053597899999998
    },
    "name": "Makak II"
  },
  {
    "id": 2460907605,
    "place": "village",
    "coordinates": {
      "lat": 3.5500139996287507,
      "lon": 11.0944327
    },
    "name": "Kaya"
  },
  {
    "id": 8541413201,
    "place": "village",
    "coordinates": {
      "lat": 3.5587711996279223,
      "lon": 11.084496999999999
    },
    "name": "Libamba"
  },
  {
    "id": 2460908067,
    "place": "village",
    "coordinates": {
      "lat": 3.5579452996280003,
      "lon": 11.123290599999999
    },
    "name": "Minka"
  },
  {
    "id": 2460907139,
    "place": "village",
    "coordinates": {
      "lat": 3.539234799629771,
      "lon": 11.168236499999999
    },
    "name": "Bakoukoué"
  },
  {
    "id": 2460908216,
    "place": "village",
    "coordinates": {
      "lat": 3.5826469996256685,
      "lon": 11.1592613
    },
    "name": "Ngombas I"
  },
  {
    "id": 2460908123,
    "place": "village",
    "coordinates": {
      "lat": 3.594696899624534,
      "lon": 11.1829621
    },
    "name": "Mom I"
  },
  {
    "id": 2460907576,
    "place": "village",
    "coordinates": {
      "lat": 3.5863743996253166,
      "lon": 11.1269837
    },
    "name": "Hondol"
  },
  {
    "id": 2460908371,
    "place": "village",
    "coordinates": {
      "lat": 3.647047299619622,
      "lon": 11.1746575
    },
    "name": "Nsamba"
  },
  {
    "id": 2460695458,
    "place": "village",
    "coordinates": {
      "lat": 3.6477434996195566,
      "lon": 11.081872
    },
    "name": "Nkongkéni"
  },
  {
    "id": 2215338069,
    "place": "town",
    "coordinates": {
      "lat": 3.612446799622865,
      "lon": 11.108722699999998
    },
    "name": "Bondjock"
  },
  {
    "id": 2460695434,
    "place": "village",
    "coordinates": {
      "lat": 3.739941299610996,
      "lon": 11.039166299999998
    },
    "name": "Nganda"
  },
  {
    "id": 2460695289,
    "place": "village",
    "coordinates": {
      "lat": 3.7420523996108015,
      "lon": 11.080734199999998
    },
    "name": "Kombeng"
  },
  {
    "id": 2460974359,
    "place": "village",
    "coordinates": {
      "lat": 3.7262689996122584,
      "lon": 11.184407999999998
    },
    "name": "Lindoi-Eone"
  },
  {
    "id": 2460974374,
    "place": "village",
    "coordinates": {
      "lat": 3.767731799608436,
      "lon": 11.1265846
    },
    "name": "Mandoumba"
  },
  {
    "id": 5936505008,
    "place": "village",
    "coordinates": {
      "lat": 3.805898199604939,
      "lon": 11.162239400000002
    },
    "name": "Kéllé"
  },
  {
    "id": 2460974375,
    "place": "village",
    "coordinates": {
      "lat": 3.7692776996082955,
      "lon": 11.096441700000002
    },
    "name": "Mandoumba"
  },
  {
    "id": 2460695343,
    "place": "village",
    "coordinates": {
      "lat": 3.7756439996077082,
      "lon": 11.0510711
    },
    "name": "Manguen I"
  },
  {
    "id": 2213842283,
    "place": "town",
    "coordinates": {
      "lat": 3.8221169996034585,
      "lon": 11.060844999999999
    },
    "name": "Matomb"
  },
  {
    "id": 2460695330,
    "place": "village",
    "coordinates": {
      "lat": 3.8101683996045486,
      "lon": 11.034327999999999
    },
    "name": "Makoda"
  },
  {
    "id": 2460695368,
    "place": "village",
    "coordinates": {
      "lat": 3.7928124996061356,
      "lon": 11.004981399999998
    },
    "name": "Mbemndjock"
  },
  {
    "id": 2460695348,
    "place": "village",
    "coordinates": {
      "lat": 3.821888699603479,
      "lon": 11.0166773
    },
    "name": "Manyaï"
  },
  {
    "id": 2460695363,
    "place": "village",
    "coordinates": {
      "lat": 3.689490699615666,
      "lon": 10.9209263
    },
    "name": "Mbandjok"
  },
  {
    "id": 4055605225,
    "place": "village",
    "coordinates": {
      "lat": 3.8389165996019274,
      "lon": 10.9047754
    },
    "name": "Libolo"
  },
  {
    "id": 2460695337,
    "place": "village",
    "coordinates": {
      "lat": 3.853476999600605,
      "lon": 10.926999999999998
    },
    "name": "Mamb"
  },
  {
    "id": 2460695296,
    "place": "village",
    "coordinates": {
      "lat": 3.8511301996008194,
      "lon": 10.9521901
    },
    "name": "Lamal"
  },
  {
    "id": 2460695483,
    "place": "village",
    "coordinates": {
      "lat": 3.874078999598738,
      "lon": 10.901595999999998
    },
    "name": "Omog"
  },
  {
    "id": 4055598716,
    "place": "village",
    "coordinates": {
      "lat": 3.861946999599836,
      "lon": 10.907612
    },
    "name": "Tayap"
  },
  {
    "id": 10788802363,
    "place": "village",
    "coordinates": {
      "lat": 3.9225917995943664,
      "lon": 10.903726799999998
    },
    "name": "Libélingoy"
  },
  {
    "id": 2460695201,
    "place": "village",
    "coordinates": {
      "lat": 3.9600519995910117,
      "lon": 10.904054399999998
    },
    "name": "Bibodi"
  },
  {
    "id": 2460695422,
    "place": "village",
    "coordinates": {
      "lat": 3.935807299593181,
      "lon": 10.9439378
    },
    "name": "Ndog Nlend"
  },
  {
    "id": 2460695479,
    "place": "village",
    "coordinates": {
      "lat": 3.9653757995905368,
      "lon": 10.968574399999998
    },
    "name": "Omang"
  },
  {
    "id": 2460695383,
    "place": "village",
    "coordinates": {
      "lat": 3.9567283995913103,
      "lon": 11.021869499999998
    },
    "name": "Mengog"
  },
  {
    "id": 2460695489,
    "place": "village",
    "coordinates": {
      "lat": 3.9279132995938895,
      "lon": 11.011246599999998
    },
    "name": "Pan-Makak"
  },
  {
    "id": 2460695441,
    "place": "village",
    "coordinates": {
      "lat": 3.8407238996017647,
      "lon": 10.986782899999998
    },
    "name": "Ngoung"
  },
  {
    "id": 2460695237,
    "place": "village",
    "coordinates": {
      "lat": 3.848337099601072,
      "lon": 11.043260999999998
    },
    "name": "Bomtol"
  },
  {
    "id": 2460695354,
    "place": "village",
    "coordinates": {
      "lat": 3.845078299601369,
      "lon": 11.038767499999999
    },
    "name": "Matomb Brousse"
  },
  {
    "id": 5827828519,
    "place": "village",
    "coordinates": {
      "lat": 3.86201739959983,
      "lon": 11.0651529
    },
    "name": "Pan-Eoné"
  },
  {
    "id": 2460974417,
    "place": "village",
    "coordinates": {
      "lat": 3.8615341995998755,
      "lon": 11.0912825
    },
    "name": "Nkeng-Likok"
  },
  {
    "id": 5827828525,
    "place": "village",
    "coordinates": {
      "lat": 3.857746299600218,
      "lon": 11.1039698
    },
    "name": "Lissé"
  },
  {
    "id": 2460974402,
    "place": "village",
    "coordinates": {
      "lat": 3.8265921996030494,
      "lon": 11.1061629
    },
    "name": "Mpobé"
  },
  {
    "id": 2460974378,
    "place": "village",
    "coordinates": {
      "lat": 3.8319791996025594,
      "lon": 11.142077499999997
    },
    "name": "Manguen II"
  },
  {
    "id": 6181044097,
    "place": "village",
    "coordinates": {
      "lat": 3.8503922996008857,
      "lon": 11.1693084
    },
    "name": "Ngondjié"
  },
  {
    "id": 2460974415,
    "place": "village",
    "coordinates": {
      "lat": 3.9633607995907165,
      "lon": 11.1537309
    },
    "name": "Ngwangwanda"
  },
  {
    "id": 2460974354,
    "place": "village",
    "coordinates": {
      "lat": 3.960713999590953,
      "lon": 11.1029997
    },
    "name": "Lelep"
  },
  {
    "id": 2460974373,
    "place": "village",
    "coordinates": {
      "lat": 3.968728999590239,
      "lon": 11.102025799999998
    },
    "name": "Mandoi"
  },
  {
    "id": 2460695355,
    "place": "village",
    "coordinates": {
      "lat": 3.922375599594386,
      "lon": 11.042962299999997
    },
    "name": "Mayos"
  },
  {
    "id": 2460695254,
    "place": "village",
    "coordinates": {
      "lat": 3.9393176995928663,
      "lon": 11.056628599999998
    },
    "name": "Djel"
  },
  {
    "id": 2460695299,
    "place": "village",
    "coordinates": {
      "lat": 3.950453899591868,
      "lon": 11.066697299999998
    },
    "name": "Lelep II"
  },
  {
    "id": 2460695264,
    "place": "village",
    "coordinates": {
      "lat": 3.9706460995900685,
      "lon": 11.0482336
    },
    "name": "Ekgangomba"
  },
  {
    "id": 2460695347,
    "place": "village",
    "coordinates": {
      "lat": 3.993150199588066,
      "lon": 11.0617441
    },
    "name": "Manolo"
  },
  {
    "id": 3055571093,
    "place": "suburb",
    "coordinates": {
      "lat": 4.018370699585831,
      "lon": 11.039237799999999
    },
    "name": "Makak"
  },
  {
    "id": 5469212312,
    "place": "suburb",
    "coordinates": {
      "lat": 4.01907409958577,
      "lon": 11.078101999999998
    },
    "name": "Makunde"
  },